[
  {
    "store_number": "000017",
    "name": "Taco Bell",
    "lat": 34.081152071742444,
    "lon": -118.09035223382517,
    "city": "San Gabriel",
    "state": "CA",
    "zip": "91776",
    "price_index": 1.02,
    "has_drive_thru": 1,
    "has_breakfast": 1,
    "has_late_night": 1,
    "has_delivery": 1
  },
  {
    "store_number": "000024",
    "name": "Taco Bell",
    "lat": 34.08851176000352,
    "lon": -117.74968881906716,
    "city": "Pomona",
    "state": "CA",
    "zip": "91767",
    "price_index": 1.07,
    "has_drive_thru": 1,
    "has_breakfast": 1,
    "has_late_night": 1,
    "has_delivery": 1
  },
  {
    "store_number": "000067",
    "name": "Taco Bell",
    "lat": 33.56862760285952,
    "lon": -112.09920822526328,
    "city": "Phoenix",
    "state": "AZ",
    "zip": "85021",
    "price_index": 0.99,
    "has_drive_thru": 1,
    "has_breakfast": 1,
    "has_late_night": 1,
    "has_delivery": 1
  },
  {
    "store_number": "000071",
    "name": "Taco Bell",
    "lat": 34.18821720951887,
    "lon": -118.31914231181145,
    "city": "Burbank",
    "state": "CA",
    "zip": "91504",
    "price_index": 1.0,
    "has_drive_thru": 1,
    "has_breakfast": 1,
    "has_late_night": 1,
    "has_delivery": 1
  },
  {
    "store_number": "000080",
    "name": "Taco Bell",
    "lat": 33.48011950795264,
    "lon": -112.01478324833255,
    "city": "Phoenix",
    "state": "AZ",
    "zip": "85016",
    "price_index": 0.97,
    "has_drive_thru": 1,
    "has_breakfast": 1,
    "has_late_night": 1,
    "has_delivery": 1
  },
  {
    "store_number": "000084",
    "name": "Taco Bell",
    "lat": 33.87723669755706,
    "lon": -118.35292339324951,
    "city": "Lawndale",
    "state": "CA",
    "zip": "90260",
    "price_index": 1.01,
    "has_drive_thru": 1,
    "has_breakfast": 1,
    "has_late_night": 1,
    "has_delivery": 1
  },
  {
    "store_number": "000086",
    "name": "Taco Bell",
    "lat": 34.1791319350549,
    "lon": -118.38290457442449,
    "city": "North Hollywood",
    "state": "CA",
    "zip": "91601",
    "price_index": 1.0,
    "has_drive_thru": 1,
    "has_breakfast": 1,
    "has_late_night": 1,
    "has_delivery": 1
  },
  {
    "store_number": "000114",
    "name": "Taco Bell",
    "lat": 33.75885968774702,
    "lon": -118.00356258453576,
    "city": "Westminster",
    "state": "CA",
    "zip": "92683",
    "price_index": 1.07,
    "has_drive_thru": 1,
    "has_breakfast": 1,
    "has_late_night": 1,
    "has_delivery": 1
  },
  {
    "store_number": "000141",
    "name": "Taco Bell",
    "lat": 33.53818006019381,
    "lon": -112.13509981335847,
    "city": "Phoenix",
    "state": "AZ",
    "zip": "85051",
    "price_index": 0.97,
    "has_drive_thru": 1,
    "has_breakfast": 1,
    "has_late_night": 1,
    "has_delivery": 1
  },
  {
    "store_number": "000146",
    "name": "Taco Bell",
    "lat": 33.7648977574572,
    "lon": -118.15531913988116,
    "city": "Long Beach",
    "state": "CA",
    "zip": "90803",
    "price_index": 1.1,
    "has_drive_thru": 0,
    "has_breakfast": 0,
    "has_late_night": 1,
    "has_delivery": 1
  },
  {
    "store_number": "000215",
    "name": "Taco Bell",
    "lat": 33.97136680333456,
    "lon": -118.16386230295393,
    "city": "Bell Gardens",
    "state": "CA",
    "zip": "90201",
    "price_index": 1.07,
    "has_drive_thru": 1,
    "has_breakfast": 1,
    "has_late_night": 1,
    "has_delivery": 1
  },
  {
    "store_number": "000236",
    "name": "Taco Bell",
    "lat": 39.14603760945925,
    "lon": -121.59419325878844,
    "city": "Marysville",
    "state": "CA",
    "zip": "95901",
    "price_index": 0.93,
    "has_drive_thru": 1,
    "has_breakfast": 1,
    "has_late_night": 1,
    "has_delivery": 1
  },
  {
    "store_number": "000243",
    "name": "Taco Bell",
    "lat": 25.866932454118835,
    "lon": -80.3047987818718,
    "city": "Hialeah",
    "state": "FL",
    "zip": "33012",
    "price_index": 1.0,
    "has_drive_thru": 1,
    "has_breakfast": 1,
    "has_late_night": 1,
    "has_delivery": 1
  },
  {
    "store_number": "000273",
    "name": "Taco Bell",
    "lat": 35.10990064379202,
    "lon": -106.58668090404717,
    "city": "Albuquerque",
    "state": "NM",
    "zip": "87110",
    "price_index": 1.01,
    "has_drive_thru": 1,
    "has_breakfast": 1,
    "has_late_night": 1,
    "has_delivery": 1
  },
  {
    "store_number": "000274",
    "name": "Taco Bell",
    "lat": 44.05234934040528,
    "lon": -123.10314197839944,
    "city": "Eugene",
    "state": "OR",
    "zip": "97402",
    "price_index": 1.04,
    "has_drive_thru": 1,
    "has_breakfast": 1,
    "has_late_night": 1,
    "has_delivery": 1
  },
  {
    "store_number": "000290",
    "name": "Taco Bell",
    "lat": 38.54685119304383,
    "lon": -121.74010679125786,
    "city": "Davis",
    "state": "CA",
    "zip": "95616",
    "price_index": 1.16,
    "has_drive_thru": 0,
    "has_breakfast": 0,
    "has_late_night": 1,
    "has_delivery": 1
  },
  {
    "store_number": "000328",
    "name": "Taco Bell",
    "lat": 31.772606730130583,
    "lon": -106.49979610742776,
    "city": "El Paso",
    "state": "TX",
    "zip": "79902",
    "price_index": 0.99,
    "has_drive_thru": 1,
    "has_breakfast": 1,
    "has_late_night": 1,
    "has_delivery": 1
  },
  {
    "store_number": "000404",
    "name": "Taco Bell",
    "lat": 40.81380590373677,
    "lon": -96.65687575941774,
    "city": "Lincoln",
    "state": "NE",
    "zip": "68510",
    "price_index": 0.93,
    "has_drive_thru": 1,
    "has_breakfast": 1,
    "has_late_night": 1,
    "has_delivery": 1
  },
  {
    "store_number": "000456",
    "name": "Taco Bell",
    "lat": 38.94675185782623,
    "lon": -92.33476102352142,
    "city": "Columbia",
    "state": "MO",
    "zip": "65203",
    "price_index": 1.01,
    "has_drive_thru": 1,
    "has_breakfast": 0,
    "has_late_night": 1,
    "has_delivery": 1
  },
  {
    "store_number": "000597",
    "name": "Taco Bell",
    "lat": 32.90128585506651,
    "lon": -80.01802732052056,
    "city": "North Charleston",
    "state": "SC",
    "zip": "29406",
    "price_index": 0.97,
    "has_drive_thru": 1,
    "has_breakfast": 0,
    "has_late_night": 1,
    "has_delivery": 1
  },
  {
    "store_number": "000833",
    "name": "Taco Bell",
    "lat": 33.9597357064805,
    "lon": -118.31461234973274,
    "city": "Los Angeles",
    "state": "CA",
    "zip": "90047",
    "price_index": 1.09,
    "has_drive_thru": 1,
    "has_breakfast": 0,
    "has_late_night": 1,
    "has_delivery": 1
  },
  {
    "store_number": "000848",
    "name": "Taco Bell",
    "lat": 42.250590141928726,
    "lon": -83.19532196223633,
    "city": "Lincoln Park",
    "state": "MI",
    "zip": "48146",
    "price_index": 1.05,
    "has_drive_thru": 1,
    "has_breakfast": 1,
    "has_late_night": 1,
    "has_delivery": 1
  },
  {
    "store_number": "000864",
    "name": "Taco Bell",
    "lat": 36.14756695154444,
    "lon": -95.94418248998298,
    "city": "Tulsa",
    "state": "OK",
    "zip": "74104",
    "price_index": 0.98,
    "has_drive_thru": 1,
    "has_breakfast": 0,
    "has_late_night": 1,
    "has_delivery": 1
  },
  {
    "store_number": "000867",
    "name": "Taco Bell",
    "lat": 42.29831878358822,
    "lon": -83.2829037308693,
    "city": "Dearborn",
    "state": "MI",
    "zip": "48124",
    "price_index": 1.08,
    "has_drive_thru": 1,
    "has_breakfast": 0,
    "has_late_night": 1,
    "has_delivery": 1
  },
  {
    "store_number": "000939",
    "name": "Taco Bell",
    "lat": 41.7060621244145,
    "lon": -83.62341110409943,
    "city": "Toledo",
    "state": "OH",
    "zip": "43613",
    "price_index": 0.98,
    "has_drive_thru": 1,
    "has_breakfast": 1,
    "has_late_night": 1,
    "has_delivery": 1
  },
  {
    "store_number": "000951",
    "name": "Taco Bell",
    "lat": 39.07766213273832,
    "lon": -108.55843041838853,
    "city": "Grand Junction",
    "state": "CO",
    "zip": "81501",
    "price_index": 0.96,
    "has_drive_thru": 1,
    "has_breakfast": 1,
    "has_late_night": 1,
    "has_delivery": 1
  },
  {
    "store_number": "000953",
    "name": "Taco Bell",
    "lat": 34.21774695309675,
    "lon": -119.17768717558829,
    "city": "Oxnard",
    "state": "CA",
    "zip": "93030",
    "price_index": 1.08,
    "has_drive_thru": 1,
    "has_breakfast": 1,
    "has_late_night": 1,
    "has_delivery": 1
  },
  {
    "store_number": "000992",
    "name": "Taco Bell",
    "lat": 37.41726322541609,
    "lon": -121.87572196125984,
    "city": "Milpitas",
    "state": "CA",
    "zip": "95035",
    "price_index": 1.06,
    "has_drive_thru": 1,
    "has_breakfast": 1,
    "has_late_night": 1,
    "has_delivery": 1
  },
  {
    "store_number": "001020",
    "name": "Taco Bell",
    "lat": 34.18570447965787,
    "lon": -118.64315986633301,
    "city": "Woodland Hills",
    "state": "CA",
    "zip": "91367",
    "price_index": 1.02,
    "has_drive_thru": 1,
    "has_breakfast": 0,
    "has_late_night": 1,
    "has_delivery": 1
  },
  {
    "store_number": "001037",
    "name": "Taco Bell",
    "lat": 43.784675391369575,
    "lon": -88.46332758665085,
    "city": "Fond Du Lac",
    "state": "WI",
    "zip": "54935",
    "price_index": 0.85,
    "has_drive_thru": 1,
    "has_breakfast": 0,
    "has_late_night": 1,
    "has_delivery": 1
  },
  {
    "store_number": "001041",
    "name": "Taco Bell",
    "lat": 38.617221468203645,
    "lon": -121.3633195155174,
    "city": "Sacramento",
    "state": "CA",
    "zip": "95821",
    "price_index": 1.16,
    "has_drive_thru": 1,
    "has_breakfast": 0,
    "has_late_night": 1,
    "has_delivery": 1
  },
  {
    "store_number": "001089",
    "name": "Taco Bell - Live M\u00e1s Caf\u00e9",
    "lat": 32.83626582002558,
    "lon": -96.77328680457322,
    "city": "Dallas",
    "state": "TX",
    "zip": "75206",
    "price_index": 0.97,
    "has_drive_thru": 1,
    "has_breakfast": 1,
    "has_late_night": 1,
    "has_delivery": 1
  },
  {
    "store_number": "001123",
    "name": "Taco Bell",
    "lat": 37.06206958466228,
    "lon": -94.51414798201768,
    "city": "Joplin",
    "state": "MO",
    "zip": "64804",
    "price_index": 0.93,
    "has_drive_thru": 1,
    "has_breakfast": 1,
    "has_late_night": 1,
    "has_delivery": 1
  },
  {
    "store_number": "001128",
    "name": "Taco Bell",
    "lat": 37.07960150896805,
    "lon": -94.47705991571638,
    "city": "Joplin",
    "state": "MO",
    "zip": "64801",
    "price_index": 0.93,
    "has_drive_thru": 1,
    "has_breakfast": 1,
    "has_late_night": 1,
    "has_delivery": 1
  },
  {
    "store_number": "001178",
    "name": "Taco Bell / Pizza Hut",
    "lat": 33.98517773082598,
    "lon": -118.33058327436447,
    "city": "Los Angeles",
    "state": "CA",
    "zip": "90043",
    "price_index": 1.09,
    "has_drive_thru": 1,
    "has_breakfast": 0,
    "has_late_night": 1,
    "has_delivery": 1
  },
  {
    "store_number": "001204",
    "name": "Taco Bell",
    "lat": 41.04895769542847,
    "lon": -83.62901813819917,
    "city": "Findlay",
    "state": "OH",
    "zip": "45840",
    "price_index": 0.92,
    "has_drive_thru": 1,
    "has_breakfast": 1,
    "has_late_night": 1,
    "has_delivery": 1
  },
  {
    "store_number": "001264",
    "name": "Taco Bell",
    "lat": 42.37105097615619,
    "lon": -83.30310358668612,
    "city": "Redford",
    "state": "MI",
    "zip": "48239",
    "price_index": 1.08,
    "has_drive_thru": 1,
    "has_breakfast": 0,
    "has_late_night": 1,
    "has_delivery": 1
  },
  {
    "store_number": "001279",
    "name": "Taco Bell",
    "lat": 40.79441302771492,
    "lon": -81.43915767967599,
    "city": "Canton",
    "state": "OH",
    "zip": "44708",
    "price_index": 0.99,
    "has_drive_thru": 1,
    "has_breakfast": 1,
    "has_late_night": 1,
    "has_delivery": 1
  },
  {
    "store_number": "001281",
    "name": "Taco Bell",
    "lat": 21.280319540592494,
    "lon": -157.81392170931213,
    "city": "Honolulu",
    "state": "HI",
    "zip": "96816",
    "price_index": 1.09,
    "has_drive_thru": 0,
    "has_breakfast": 0,
    "has_late_night": 1,
    "has_delivery": 1
  },
  {
    "store_number": "001288",
    "name": "Taco Bell",
    "lat": 43.43724058123171,
    "lon": -84.01602655649185,
    "city": "Saginaw",
    "state": "MI",
    "zip": "48603",
    "price_index": 1.01,
    "has_drive_thru": 1,
    "has_breakfast": 1,
    "has_late_night": 1,
    "has_delivery": 1
  },
  {
    "store_number": "001331",
    "name": "Taco Bell - Live M\u00e1s Caf\u00e9",
    "lat": 32.82675010523157,
    "lon": -96.83056600394593,
    "city": "Dallas",
    "state": "TX",
    "zip": "75235",
    "price_index": 0.97,
    "has_drive_thru": 1,
    "has_breakfast": 1,
    "has_late_night": 1,
    "has_delivery": 1
  },
  {
    "store_number": "001360",
    "name": "Taco Bell",
    "lat": 27.707094343131846,
    "lon": -97.38871067762375,
    "city": "Corpus Christi",
    "state": "TX",
    "zip": "78411",
    "price_index": 0.91,
    "has_drive_thru": 1,
    "has_breakfast": 0,
    "has_late_night": 1,
    "has_delivery": 1
  },
  {
    "store_number": "001370",
    "name": "Taco Bell",
    "lat": 21.324090241404516,
    "lon": -157.87534122170655,
    "city": "Honolulu",
    "state": "HI",
    "zip": "96817",
    "price_index": 1.09,
    "has_drive_thru": 1,
    "has_breakfast": 1,
    "has_late_night": 1,
    "has_delivery": 1
  },
  {
    "store_number": "001394",
    "name": "Taco Bell",
    "lat": 36.73915228969707,
    "lon": -108.17798797559328,
    "city": "Farmington",
    "state": "NM",
    "zip": "87401",
    "price_index": 0.8,
    "has_drive_thru": 1,
    "has_breakfast": 1,
    "has_late_night": 1,
    "has_delivery": 1
  },
  {
    "store_number": "001398",
    "name": "Taco Bell",
    "lat": 44.9915066090049,
    "lon": -93.10530154736841,
    "city": "Saint Paul",
    "state": "MN",
    "zip": "55117",
    "price_index": 0.98,
    "has_drive_thru": 1,
    "has_breakfast": 1,
    "has_late_night": 1,
    "has_delivery": 1
  },
  {
    "store_number": "001413",
    "name": "Taco Bell",
    "lat": 21.49382879639314,
    "lon": -158.0286231637001,
    "city": "Wahiawa",
    "state": "HI",
    "zip": "96786",
    "price_index": 1.09,
    "has_drive_thru": 1,
    "has_breakfast": 1,
    "has_late_night": 1,
    "has_delivery": 1
  },
  {
    "store_number": "001419",
    "name": "Taco Bell",
    "lat": 40.40639725517688,
    "lon": -105.07272187248326,
    "city": "Loveland",
    "state": "CO",
    "zip": "80537",
    "price_index": 1.03,
    "has_drive_thru": 1,
    "has_breakfast": 1,
    "has_late_night": 1,
    "has_delivery": 1
  },
  {
    "store_number": "001423",
    "name": "Taco Bell",
    "lat": 42.094717788641915,
    "lon": -87.95317505301682,
    "city": "Arlington Heights",
    "state": "IL",
    "zip": "60004",
    "price_index": 1.0,
    "has_drive_thru": 1,
    "has_breakfast": 0,
    "has_late_night": 1,
    "has_delivery": 1
  },
  {
    "store_number": "001435",
    "name": "Taco Bell",
    "lat": 44.061257612243125,
    "lon": -121.30195547641961,
    "city": "Bend",
    "state": "OR",
    "zip": "97701",
    "price_index": 0.97,
    "has_drive_thru": 1,
    "has_breakfast": 1,
    "has_late_night": 1,
    "has_delivery": 1
  },
  {
    "store_number": "001439",
    "name": "Taco Bell",
    "lat": 42.53594917872571,
    "lon": -83.06661828431061,
    "city": "Sterling Heights",
    "state": "MI",
    "zip": "48310",
    "price_index": 1.08,
    "has_drive_thru": 1,
    "has_breakfast": 0,
    "has_late_night": 1,
    "has_delivery": 1
  },
  {
    "store_number": "001469",
    "name": "Taco Bell",
    "lat": 42.291758682661715,
    "lon": -83.38639006018644,
    "city": "Westland",
    "state": "MI",
    "zip": "48186",
    "price_index": 1.02,
    "has_drive_thru": 1,
    "has_breakfast": 1,
    "has_late_night": 1,
    "has_delivery": 1
  },
  {
    "store_number": "001498",
    "name": "Taco Bell",
    "lat": 40.77028828477876,
    "lon": -73.5016836673185,
    "city": "Hicksville",
    "state": "NY",
    "zip": "11801",
    "price_index": 1.05,
    "has_drive_thru": 1,
    "has_breakfast": 1,
    "has_late_night": 1,
    "has_delivery": 1
  },
  {
    "store_number": "001510",
    "name": "Taco Bell",
    "lat": 42.232941229526915,
    "lon": -83.2700921595096,
    "city": "Taylor",
    "state": "MI",
    "zip": "48180",
    "price_index": 1.03,
    "has_drive_thru": 1,
    "has_breakfast": 1,
    "has_late_night": 1,
    "has_delivery": 1
  },
  {
    "store_number": "001521",
    "name": "Taco Bell",
    "lat": 38.52294615501463,
    "lon": -121.49746171580777,
    "city": "Sacramento",
    "state": "CA",
    "zip": "95822",
    "price_index": 1.16,
    "has_drive_thru": 1,
    "has_breakfast": 0,
    "has_late_night": 1,
    "has_delivery": 1
  },
  {
    "store_number": "001524",
    "name": "Taco Bell",
    "lat": 34.15166154326374,
    "lon": -118.75875502824783,
    "city": "Agoura Hills",
    "state": "CA",
    "zip": "91301",
    "price_index": 1.03,
    "has_drive_thru": 1,
    "has_breakfast": 1,
    "has_late_night": 1,
    "has_delivery": 1
  },
  {
    "store_number": "001530",
    "name": "Taco Bell",
    "lat": 21.34469540328535,
    "lon": -157.92784153367998,
    "city": "Honolulu",
    "state": "HI",
    "zip": "96818",
    "price_index": 1.09,
    "has_drive_thru": 1,
    "has_breakfast": 1,
    "has_late_night": 1,
    "has_delivery": 1
  },
  {
    "store_number": "001531",
    "name": "Taco Bell",
    "lat": 45.225356953102114,
    "lon": -123.1886828644565,
    "city": "McMinnville",
    "state": "OR",
    "zip": "97128",
    "price_index": 0.97,
    "has_drive_thru": 1,
    "has_breakfast": 1,
    "has_late_night": 1,
    "has_delivery": 1
  },
  {
    "store_number": "001557",
    "name": "Taco Bell",
    "lat": 42.143183712383305,
    "lon": -83.22692326736615,
    "city": "Woodhaven",
    "state": "MI",
    "zip": "48183",
    "price_index": 1.02,
    "has_drive_thru": 1,
    "has_breakfast": 1,
    "has_late_night": 1,
    "has_delivery": 1
  },
  {
    "store_number": "001567",
    "name": "Taco Bell",
    "lat": 42.506079753181425,
    "lon": -82.93013281655476,
    "city": "Roseville",
    "state": "MI",
    "zip": "48066",
    "price_index": 1.01,
    "has_drive_thru": 1,
    "has_breakfast": 1,
    "has_late_night": 1,
    "has_delivery": 1
  },
  {
    "store_number": "001571",
    "name": "Taco Bell",
    "lat": 42.36946992982259,
    "lon": -83.35313375294106,
    "city": "Livonia",
    "state": "MI",
    "zip": "48150",
    "price_index": 1.03,
    "has_drive_thru": 1,
    "has_breakfast": 1,
    "has_late_night": 1,
    "has_delivery": 1
  },
  {
    "store_number": "001590",
    "name": "Taco Bell",
    "lat": 41.42821201754905,
    "lon": -81.89038395881659,
    "city": "North Olmsted",
    "state": "OH",
    "zip": "44070",
    "price_index": 0.99,
    "has_drive_thru": 1,
    "has_breakfast": 0,
    "has_late_night": 1,
    "has_delivery": 1
  },
  {
    "store_number": "001591",
    "name": "Taco Bell",
    "lat": 42.641847349921214,
    "lon": -83.03241760805605,
    "city": "Utica",
    "state": "MI",
    "zip": "48317",
    "price_index": 1.02,
    "has_drive_thru": 1,
    "has_breakfast": 1,
    "has_late_night": 1,
    "has_delivery": 1
  },
  {
    "store_number": "001613",
    "name": "Taco Bell",
    "lat": 40.763511178011875,
    "lon": -73.32956499915579,
    "city": "Deer Park",
    "state": "NY",
    "zip": "11729",
    "price_index": 1.03,
    "has_drive_thru": 1,
    "has_breakfast": 1,
    "has_late_night": 1,
    "has_delivery": 1
  },
  {
    "store_number": "001636",
    "name": "Taco Bell",
    "lat": 32.84559433556844,
    "lon": -96.59598742427079,
    "city": "Garland",
    "state": "TX",
    "zip": "75043",
    "price_index": 0.97,
    "has_drive_thru": 1,
    "has_breakfast": 1,
    "has_late_night": 1,
    "has_delivery": 1
  },
  {
    "store_number": "001646",
    "name": "Taco Bell",
    "lat": 42.67535640516933,
    "lon": -84.54779326915741,
    "city": "Lansing",
    "state": "MI",
    "zip": "48911",
    "price_index": 1.09,
    "has_drive_thru": 1,
    "has_breakfast": 0,
    "has_late_night": 1,
    "has_delivery": 1
  },
  {
    "store_number": "001648",
    "name": "Taco Bell",
    "lat": 40.660388659108584,
    "lon": -73.68205355534022,
    "city": "Lynbrook",
    "state": "NY",
    "zip": "11563",
    "price_index": 1.04,
    "has_drive_thru": 1,
    "has_breakfast": 1,
    "has_late_night": 1,
    "has_delivery": 1
  },
  {
    "store_number": "001651",
    "name": "Taco Bell",
    "lat": 42.25422907874331,
    "lon": -84.4236646592617,
    "city": "Jackson",
    "state": "MI",
    "zip": "49202",
    "price_index": 1.09,
    "has_drive_thru": 1,
    "has_breakfast": 0,
    "has_late_night": 1,
    "has_delivery": 1
  },
  {
    "store_number": "001661",
    "name": "Taco Bell",
    "lat": 42.35000651139183,
    "lon": -83.27328178973356,
    "city": "Dearborn Heights",
    "state": "MI",
    "zip": "48127",
    "price_index": 1.08,
    "has_drive_thru": 1,
    "has_breakfast": 0,
    "has_late_night": 1,
    "has_delivery": 1
  },
  {
    "store_number": "001667",
    "name": "Taco Bell",
    "lat": 40.836810650771774,
    "lon": -73.4113478735253,
    "city": "Huntington Station",
    "state": "NY",
    "zip": "11746",
    "price_index": 1.05,
    "has_drive_thru": 1,
    "has_breakfast": 1,
    "has_late_night": 1,
    "has_delivery": 1
  },
  {
    "store_number": "001669",
    "name": "Taco Bell",
    "lat": 37.223644087236515,
    "lon": -93.26101818684037,
    "city": "Springfield",
    "state": "MO",
    "zip": "65802",
    "price_index": 0.99,
    "has_drive_thru": 1,
    "has_breakfast": 0,
    "has_late_night": 1,
    "has_delivery": 1
  },
  {
    "store_number": "001683",
    "name": "Taco Bell",
    "lat": 42.18515613284757,
    "lon": -122.67192994059769,
    "city": "Ashland",
    "state": "OR",
    "zip": "97520",
    "price_index": 1.05,
    "has_drive_thru": 1,
    "has_breakfast": 1,
    "has_late_night": 1,
    "has_delivery": 1
  },
  {
    "store_number": "001690",
    "name": "Taco Bell",
    "lat": 41.1540331558695,
    "lon": -81.34729153943226,
    "city": "Kent",
    "state": "OH",
    "zip": "44240",
    "price_index": 0.99,
    "has_drive_thru": 1,
    "has_breakfast": 1,
    "has_late_night": 1,
    "has_delivery": 1
  },
  {
    "store_number": "001691",
    "name": "Taco Bell",
    "lat": 41.92836960562754,
    "lon": -83.41266377831744,
    "city": "Monroe",
    "state": "MI",
    "zip": "48161",
    "price_index": 1.04,
    "has_drive_thru": 1,
    "has_breakfast": 1,
    "has_late_night": 1,
    "has_delivery": 1
  },
  {
    "store_number": "001695",
    "name": "Taco Bell",
    "lat": 37.160999714977635,
    "lon": -93.27760134638993,
    "city": "Springfield",
    "state": "MO",
    "zip": "65804",
    "price_index": 0.99,
    "has_drive_thru": 1,
    "has_breakfast": 0,
    "has_late_night": 1,
    "has_delivery": 1
  },
  {
    "store_number": "001701",
    "name": "Taco Bell",
    "lat": 21.396315321411628,
    "lon": -157.7456086771218,
    "city": "Kailua",
    "state": "HI",
    "zip": "96734",
    "price_index": 1.1,
    "has_drive_thru": 1,
    "has_breakfast": 1,
    "has_late_night": 1,
    "has_delivery": 1
  },
  {
    "store_number": "001704",
    "name": "Taco Bell",
    "lat": 45.60883449460727,
    "lon": -121.2029375834345,
    "city": "The Dalles",
    "state": "OR",
    "zip": "97058",
    "price_index": 1.02,
    "has_drive_thru": 1,
    "has_breakfast": 1,
    "has_late_night": 1,
    "has_delivery": 1
  },
  {
    "store_number": "001715",
    "name": "Taco Bell",
    "lat": 39.71073106642964,
    "lon": -86.08316809685675,
    "city": "Indianapolis",
    "state": "IN",
    "zip": "46203",
    "price_index": 0.96,
    "has_drive_thru": 1,
    "has_breakfast": 1,
    "has_late_night": 1,
    "has_delivery": 1
  },
  {
    "store_number": "001732",
    "name": "Taco Bell",
    "lat": 42.32247892201157,
    "lon": -83.48488225604342,
    "city": "Canton",
    "state": "MI",
    "zip": "48187",
    "price_index": 1.01,
    "has_drive_thru": 1,
    "has_breakfast": 1,
    "has_late_night": 1,
    "has_delivery": 1
  },
  {
    "store_number": "001734",
    "name": "Taco Bell",
    "lat": 35.09125103526507,
    "lon": -92.42576837539673,
    "city": "Conway",
    "state": "AR",
    "zip": "72032",
    "price_index": 0.99,
    "has_drive_thru": 1,
    "has_breakfast": 0,
    "has_late_night": 1,
    "has_delivery": 1
  },
  {
    "store_number": "001738",
    "name": "Taco Bell",
    "lat": 42.468798757808486,
    "lon": -83.42478863430642,
    "city": "Farmington Hills",
    "state": "MI",
    "zip": "48335",
    "price_index": 1.05,
    "has_drive_thru": 1,
    "has_breakfast": 1,
    "has_late_night": 1,
    "has_delivery": 1
  },
  {
    "store_number": "001745",
    "name": "Taco Bell",
    "lat": 34.58044181400597,
    "lon": -92.57391680036979,
    "city": "Benton",
    "state": "AR",
    "zip": "72015",
    "price_index": 0.99,
    "has_drive_thru": 1,
    "has_breakfast": 0,
    "has_late_night": 1,
    "has_delivery": 1
  },
  {
    "store_number": "001746",
    "name": "Taco Bell",
    "lat": 40.63705976846429,
    "lon": -73.6406118616414,
    "city": "Oceanside",
    "state": "NY",
    "zip": "11572",
    "price_index": 1.05,
    "has_drive_thru": 1,
    "has_breakfast": 1,
    "has_late_night": 1,
    "has_delivery": 1
  },
  {
    "store_number": "001758",
    "name": "Taco Bell",
    "lat": 41.03065708041324,
    "lon": -81.42626399259034,
    "city": "Akron",
    "state": "OH",
    "zip": "44312",
    "price_index": 1.0,
    "has_drive_thru": 1,
    "has_breakfast": 1,
    "has_late_night": 1,
    "has_delivery": 1
  },
  {
    "store_number": "001764",
    "name": "Taco Bell",
    "lat": 36.81056265488537,
    "lon": -76.3659008834969,
    "city": "Portsmouth",
    "state": "VA",
    "zip": "23701",
    "price_index": 1.03,
    "has_drive_thru": 1,
    "has_breakfast": 0,
    "has_late_night": 1,
    "has_delivery": 1
  },
  {
    "store_number": "001795",
    "name": "Taco Bell",
    "lat": 42.30977693893683,
    "lon": -83.34892281415368,
    "city": "Westland",
    "state": "MI",
    "zip": "48185",
    "price_index": 1.08,
    "has_drive_thru": 1,
    "has_breakfast": 0,
    "has_late_night": 1,
    "has_delivery": 1
  },
  {
    "store_number": "001813",
    "name": "Taco Bell",
    "lat": 39.09547319459814,
    "lon": -84.61134613306967,
    "city": "Cincinnati",
    "state": "OH",
    "zip": "45238",
    "price_index": 1.05,
    "has_drive_thru": 1,
    "has_breakfast": 1,
    "has_late_night": 1,
    "has_delivery": 1
  },
  {
    "store_number": "001856",
    "name": "Taco Bell",
    "lat": 40.51278617707807,
    "lon": -81.45509669987982,
    "city": "Dover",
    "state": "OH",
    "zip": "44622",
    "price_index": 1.0,
    "has_drive_thru": 1,
    "has_breakfast": 1,
    "has_late_night": 1,
    "has_delivery": 1
  },
  {
    "store_number": "001863",
    "name": "Taco Bell",
    "lat": 27.695609353818288,
    "lon": -97.34743991537226,
    "city": "Corpus Christi",
    "state": "TX",
    "zip": "78412",
    "price_index": 0.91,
    "has_drive_thru": 1,
    "has_breakfast": 0,
    "has_late_night": 1,
    "has_delivery": 1
  },
  {
    "store_number": "001872",
    "name": "Taco Bell",
    "lat": 35.858721341470904,
    "lon": -78.70536898078171,
    "city": "Raleigh",
    "state": "NC",
    "zip": "27612",
    "price_index": 1.03,
    "has_drive_thru": 1,
    "has_breakfast": 1,
    "has_late_night": 1,
    "has_delivery": 1
  },
  {
    "store_number": "001879",
    "name": "Taco Bell",
    "lat": 38.31226958168762,
    "lon": -77.47672970552253,
    "city": "Fredericksburg",
    "state": "VA",
    "zip": "22401",
    "price_index": 1.03,
    "has_drive_thru": 1,
    "has_breakfast": 0,
    "has_late_night": 1,
    "has_delivery": 1
  },
  {
    "store_number": "001880",
    "name": "Taco Bell",
    "lat": 42.719425184444525,
    "lon": -84.49754077274494,
    "city": "East Lansing",
    "state": "MI",
    "zip": "48823",
    "price_index": 1.09,
    "has_drive_thru": 1,
    "has_breakfast": 0,
    "has_late_night": 1,
    "has_delivery": 1
  },
  {
    "store_number": "001886",
    "name": "Taco Bell",
    "lat": 41.05842477195896,
    "lon": -83.6620950607514,
    "city": "Findlay",
    "state": "OH",
    "zip": "45840",
    "price_index": 0.92,
    "has_drive_thru": 1,
    "has_breakfast": 1,
    "has_late_night": 1,
    "has_delivery": 1
  },
  {
    "store_number": "001891",
    "name": "Taco Bell",
    "lat": 33.364551792011135,
    "lon": -111.8605743795797,
    "city": "Mesa",
    "state": "AZ",
    "zip": "85210",
    "price_index": 0.97,
    "has_drive_thru": 1,
    "has_breakfast": 1,
    "has_late_night": 1,
    "has_delivery": 1
  },
  {
    "store_number": "001896",
    "name": "Taco Bell",
    "lat": 42.51641840702473,
    "lon": -83.36022384000444,
    "city": "Farmington Hills",
    "state": "MI",
    "zip": "48334",
    "price_index": 1.01,
    "has_drive_thru": 1,
    "has_breakfast": 1,
    "has_late_night": 1,
    "has_delivery": 1
  },
  {
    "store_number": "001898",
    "name": "Taco Bell",
    "lat": 31.325043324953587,
    "lon": -89.32719603180885,
    "city": "Hattiesburg",
    "state": "MS",
    "zip": "39401",
    "price_index": 0.77,
    "has_drive_thru": 1,
    "has_breakfast": 1,
    "has_late_night": 1,
    "has_delivery": 1
  },
  {
    "store_number": "001937",
    "name": "Taco Bell",
    "lat": 41.86218318727714,
    "lon": -80.79882144927979,
    "city": "Ashtabula",
    "state": "OH",
    "zip": "44004",
    "price_index": 1.0,
    "has_drive_thru": 1,
    "has_breakfast": 0,
    "has_late_night": 1,
    "has_delivery": 1
  },
  {
    "store_number": "001940",
    "name": "Taco Bell",
    "lat": 39.6286229,
    "lon": -86.1212601,
    "city": "Greenwood",
    "state": "IN",
    "zip": "46142",
    "price_index": 0.97,
    "has_drive_thru": 1,
    "has_breakfast": 1,
    "has_late_night": 1,
    "has_delivery": 1
  },
  {
    "store_number": "001968",
    "name": "Taco Bell",
    "lat": 35.13030068563336,
    "lon": -106.53365976179951,
    "city": "Albuquerque",
    "state": "NM",
    "zip": "87111",
    "price_index": 1.01,
    "has_drive_thru": 1,
    "has_breakfast": 1,
    "has_late_night": 1,
    "has_delivery": 1
  },
  {
    "store_number": "001971",
    "name": "Taco Bell",
    "lat": 42.23113294188042,
    "lon": -83.23055438232814,
    "city": "Taylor",
    "state": "MI",
    "zip": "48180",
    "price_index": 1.04,
    "has_drive_thru": 1,
    "has_breakfast": 1,
    "has_late_night": 1,
    "has_delivery": 1
  },
  {
    "store_number": "001973",
    "name": "Taco Bell",
    "lat": 41.01593554778877,
    "lon": -81.60572371912167,
    "city": "Barberton",
    "state": "OH",
    "zip": "44203",
    "price_index": 0.99,
    "has_drive_thru": 1,
    "has_breakfast": 1,
    "has_late_night": 1,
    "has_delivery": 1
  },
  {
    "store_number": "001975",
    "name": "Taco Bell",
    "lat": 40.01410095890432,
    "lon": -74.95696847142426,
    "city": "Delran",
    "state": "NJ",
    "zip": "08075",
    "price_index": 1.05,
    "has_drive_thru": 1,
    "has_breakfast": 0,
    "has_late_night": 1,
    "has_delivery": 1
  },
  {
    "store_number": "001988",
    "name": "Taco Bell",
    "lat": 41.41046602614185,
    "lon": -81.53686921298402,
    "city": "Maple Heights",
    "state": "OH",
    "zip": "44137",
    "price_index": 0.99,
    "has_drive_thru": 1,
    "has_breakfast": 0,
    "has_late_night": 1,
    "has_delivery": 1
  },
  {
    "store_number": "001994",
    "name": "Taco Bell",
    "lat": 40.8667162151907,
    "lon": -82.31843769550323,
    "city": "Ashland",
    "state": "OH",
    "zip": "44805",
    "price_index": 1.0,
    "has_drive_thru": 1,
    "has_breakfast": 1,
    "has_late_night": 1,
    "has_delivery": 1
  },
  {
    "store_number": "001999",
    "name": "Taco Bell",
    "lat": 42.519359096000706,
    "lon": -83.2238550391321,
    "city": "Beverly Hills",
    "state": "MI",
    "zip": "48025",
    "price_index": 1.08,
    "has_drive_thru": 1,
    "has_breakfast": 0,
    "has_late_night": 1,
    "has_delivery": 1
  },
  {
    "store_number": "002029",
    "name": "Taco Bell",
    "lat": 42.612761326948196,
    "lon": -83.32756967625865,
    "city": "Sylvan Lake",
    "state": "MI",
    "zip": "48320",
    "price_index": 1.08,
    "has_drive_thru": 1,
    "has_breakfast": 0,
    "has_late_night": 1,
    "has_delivery": 1
  },
  {
    "store_number": "002035",
    "name": "Taco Bell",
    "lat": 39.806995775712494,
    "lon": -75.5490905195802,
    "city": "Wilmington",
    "state": "DE",
    "zip": "19803",
    "price_index": 1.05,
    "has_drive_thru": 1,
    "has_breakfast": 0,
    "has_late_night": 1,
    "has_delivery": 1
  },
  {
    "store_number": "002043",
    "name": "Taco Bell",
    "lat": 33.4492205897358,
    "lon": -112.35785397084722,
    "city": "Goodyear",
    "state": "AZ",
    "zip": "85338",
    "price_index": 0.97,
    "has_drive_thru": 1,
    "has_breakfast": 1,
    "has_late_night": 1,
    "has_delivery": 1
  },
  {
    "store_number": "002051",
    "name": "Taco Bell",
    "lat": 41.64277138037502,
    "lon": -87.73733675479889,
    "city": "Crestwood",
    "state": "IL",
    "zip": "60445",
    "price_index": 1.05,
    "has_drive_thru": 1,
    "has_breakfast": 0,
    "has_late_night": 1,
    "has_delivery": 1
  },
  {
    "store_number": "002057",
    "name": "Taco Bell",
    "lat": 39.76917983510871,
    "lon": -86.1092864424154,
    "city": "Indianapolis",
    "state": "IN",
    "zip": "46201",
    "price_index": 0.98,
    "has_drive_thru": 1,
    "has_breakfast": 1,
    "has_late_night": 1,
    "has_delivery": 1
  },
  {
    "store_number": "002060",
    "name": "Taco Bell",
    "lat": 40.25708065865908,
    "lon": -75.26813060045242,
    "city": "Lansdale",
    "state": "PA",
    "zip": "19446",
    "price_index": 1.04,
    "has_drive_thru": 1,
    "has_breakfast": 0,
    "has_late_night": 1,
    "has_delivery": 1
  },
  {
    "store_number": "002076",
    "name": "Taco Bell",
    "lat": 41.55041772431128,
    "lon": -87.42604627157561,
    "city": "Griffith",
    "state": "IN",
    "zip": "46319",
    "price_index": 1.09,
    "has_drive_thru": 1,
    "has_breakfast": 1,
    "has_late_night": 1,
    "has_delivery": 1
  },
  {
    "store_number": "002079",
    "name": "Taco Bell",
    "lat": 29.9872385795129,
    "lon": -91.82487561369271,
    "city": "New Iberia",
    "state": "LA",
    "zip": "70560",
    "price_index": 0.99,
    "has_drive_thru": 1,
    "has_breakfast": 0,
    "has_late_night": 1,
    "has_delivery": 1
  },
  {
    "store_number": "002080",
    "name": "Taco Bell",
    "lat": 39.090120042818434,
    "lon": -108.60433464068318,
    "city": "Grand Junction",
    "state": "CO",
    "zip": "81505",
    "price_index": 0.96,
    "has_drive_thru": 1,
    "has_breakfast": 1,
    "has_late_night": 1,
    "has_delivery": 1
  },
  {
    "store_number": "002083",
    "name": "Taco Bell",
    "lat": 35.22146566435283,
    "lon": -114.00571086797173,
    "city": "Kingman",
    "state": "AZ",
    "zip": "86401",
    "price_index": 0.97,
    "has_drive_thru": 1,
    "has_breakfast": 1,
    "has_late_night": 1,
    "has_delivery": 1
  },
  {
    "store_number": "002084",
    "name": "Taco Bell",
    "lat": 41.380222974929936,
    "lon": -81.73560440540314,
    "city": "Parma",
    "state": "OH",
    "zip": "44129",
    "price_index": 0.99,
    "has_drive_thru": 1,
    "has_breakfast": 0,
    "has_late_night": 1,
    "has_delivery": 1
  },
  {
    "store_number": "002086",
    "name": "Taco Bell",
    "lat": 41.48532906027964,
    "lon": -81.80523935465062,
    "city": "Lakewood",
    "state": "OH",
    "zip": "44107",
    "price_index": 0.99,
    "has_drive_thru": 1,
    "has_breakfast": 1,
    "has_late_night": 1,
    "has_delivery": 1
  },
  {
    "store_number": "002091",
    "name": "Taco Bell",
    "lat": 35.037025424956816,
    "lon": -110.69844067096716,
    "city": "Winslow",
    "state": "AZ",
    "zip": "86047",
    "price_index": 1.02,
    "has_drive_thru": 1,
    "has_breakfast": 0,
    "has_late_night": 1,
    "has_delivery": 1
  },
  {
    "store_number": "002100",
    "name": "Taco Bell",
    "lat": 41.379946246404096,
    "lon": -82.06992566585541,
    "city": "Elyria",
    "state": "OH",
    "zip": "44035",
    "price_index": 0.99,
    "has_drive_thru": 1,
    "has_breakfast": 1,
    "has_late_night": 1,
    "has_delivery": 1
  },
  {
    "store_number": "002113",
    "name": "Taco Bell",
    "lat": 39.91127433317128,
    "lon": -86.21906389297692,
    "city": "Indianapolis",
    "state": "IN",
    "zip": "46268",
    "price_index": 0.96,
    "has_drive_thru": 1,
    "has_breakfast": 1,
    "has_late_night": 1,
    "has_delivery": 1
  },
  {
    "store_number": "002114",
    "name": "Taco Bell",
    "lat": 41.62477718703549,
    "lon": -81.43878176808357,
    "city": "Willoughby",
    "state": "OH",
    "zip": "44094",
    "price_index": 0.98,
    "has_drive_thru": 1,
    "has_breakfast": 1,
    "has_late_night": 1,
    "has_delivery": 1
  },
  {
    "store_number": "002124",
    "name": "Taco Bell",
    "lat": 39.7788468180602,
    "lon": -86.28846361303658,
    "city": "Indianapolis",
    "state": "IN",
    "zip": "46214",
    "price_index": 0.99,
    "has_drive_thru": 1,
    "has_breakfast": 1,
    "has_late_night": 1,
    "has_delivery": 1
  },
  {
    "store_number": "002131",
    "name": "Taco Bell",
    "lat": 42.1166094990642,
    "lon": -88.034339636597,
    "city": "Palatine",
    "state": "IL",
    "zip": "60067",
    "price_index": 0.96,
    "has_drive_thru": 1,
    "has_breakfast": 0,
    "has_late_night": 1,
    "has_delivery": 1
  },
  {
    "store_number": "002140",
    "name": "Taco Bell",
    "lat": 42.19835694745384,
    "lon": -83.26728052050346,
    "city": "Taylor",
    "state": "MI",
    "zip": "48180",
    "price_index": 1.02,
    "has_drive_thru": 1,
    "has_breakfast": 1,
    "has_late_night": 1,
    "has_delivery": 1
  },
  {
    "store_number": "002147",
    "name": "Taco Bell",
    "lat": 41.588158810027025,
    "lon": -81.50077037048959,
    "city": "Euclid",
    "state": "OH",
    "zip": "44132",
    "price_index": 0.99,
    "has_drive_thru": 1,
    "has_breakfast": 0,
    "has_late_night": 1,
    "has_delivery": 1
  },
  {
    "store_number": "002149",
    "name": "Taco Bell",
    "lat": 37.296529587757455,
    "lon": -76.72660068492405,
    "city": "Williamsburg",
    "state": "VA",
    "zip": "23185",
    "price_index": 1.03,
    "has_drive_thru": 1,
    "has_breakfast": 0,
    "has_late_night": 1,
    "has_delivery": 1
  },
  {
    "store_number": "002152",
    "name": "Taco Bell",
    "lat": 31.61718551990897,
    "lon": -94.65316462995324,
    "city": "Nacogdoches",
    "state": "TX",
    "zip": "75965",
    "price_index": 0.91,
    "has_drive_thru": 1,
    "has_breakfast": 0,
    "has_late_night": 1,
    "has_delivery": 1
  },
  {
    "store_number": "002156",
    "name": "Taco Bell",
    "lat": 41.78832825319039,
    "lon": -87.86825188656755,
    "city": "Countryside",
    "state": "IL",
    "zip": "60525",
    "price_index": 1.04,
    "has_drive_thru": 1,
    "has_breakfast": 0,
    "has_late_night": 1,
    "has_delivery": 1
  },
  {
    "store_number": "002163",
    "name": "Taco Bell",
    "lat": 28.004325020857483,
    "lon": -81.73122969587502,
    "city": "Winter Haven",
    "state": "FL",
    "zip": "33880",
    "price_index": 0.97,
    "has_drive_thru": 1,
    "has_breakfast": 0,
    "has_late_night": 1,
    "has_delivery": 1
  },
  {
    "store_number": "002167",
    "name": "Taco Bell",
    "lat": 33.80207381502585,
    "lon": -84.4147127866745,
    "city": "Atlanta",
    "state": "GA",
    "zip": "30318",
    "price_index": 0.91,
    "has_drive_thru": 1,
    "has_breakfast": 0,
    "has_late_night": 1,
    "has_delivery": 1
  },
  {
    "store_number": "002170",
    "name": "Taco Bell",
    "lat": 39.72752044868582,
    "lon": -75.64978976549355,
    "city": "Wilmington",
    "state": "DE",
    "zip": "19808",
    "price_index": 1.06,
    "has_drive_thru": 1,
    "has_breakfast": 0,
    "has_late_night": 1,
    "has_delivery": 1
  },
  {
    "store_number": "002181",
    "name": "Taco Bell",
    "lat": 61.18049487577838,
    "lon": -149.83125248554643,
    "city": "Anchorage",
    "state": "AK",
    "zip": "99507",
    "price_index": 1.16,
    "has_drive_thru": 1,
    "has_breakfast": 1,
    "has_late_night": 1,
    "has_delivery": 1
  },
  {
    "store_number": "002187",
    "name": "Taco Bell",
    "lat": 41.049465363240905,
    "lon": -81.72824992800997,
    "city": "Wadsworth",
    "state": "OH",
    "zip": "44281",
    "price_index": 0.99,
    "has_drive_thru": 1,
    "has_breakfast": 1,
    "has_late_night": 1,
    "has_delivery": 1
  },
  {
    "store_number": "002188",
    "name": "Taco Bell",
    "lat": 41.374585732237186,
    "lon": -83.6465304047033,
    "city": "Bowling Green",
    "state": "OH",
    "zip": "43402",
    "price_index": 0.92,
    "has_drive_thru": 1,
    "has_breakfast": 1,
    "has_late_night": 1,
    "has_delivery": 1
  },
  {
    "store_number": "002189",
    "name": "Taco Bell",
    "lat": 42.05698610945212,
    "lon": -88.0022065249068,
    "city": "Arlington Heights",
    "state": "IL",
    "zip": "60005",
    "price_index": 0.96,
    "has_drive_thru": 1,
    "has_breakfast": 0,
    "has_late_night": 1,
    "has_delivery": 1
  },
  {
    "store_number": "002192",
    "name": "Taco Bell",
    "lat": 34.062474577211646,
    "lon": -117.20103345349344,
    "city": "Redlands",
    "state": "CA",
    "zip": "92374",
    "price_index": 1.0,
    "has_drive_thru": 1,
    "has_breakfast": 1,
    "has_late_night": 1,
    "has_delivery": 1
  },
  {
    "store_number": "002220",
    "name": "Taco Bell",
    "lat": 39.74053423852895,
    "lon": -105.12993675090263,
    "city": "Lakewood",
    "state": "CO",
    "zip": "80215",
    "price_index": 1.03,
    "has_drive_thru": 1,
    "has_breakfast": 1,
    "has_late_night": 1,
    "has_delivery": 1
  },
  {
    "store_number": "002224",
    "name": "Taco Bell",
    "lat": 37.5028919753367,
    "lon": -77.51989663393942,
    "city": "Richmond",
    "state": "VA",
    "zip": "23225",
    "price_index": 1.03,
    "has_drive_thru": 1,
    "has_breakfast": 0,
    "has_late_night": 1,
    "has_delivery": 1
  },
  {
    "store_number": "002236",
    "name": "Taco Bell",
    "lat": 42.508514751457014,
    "lon": -82.96775891451944,
    "city": "Roseville",
    "state": "MI",
    "zip": "48066",
    "price_index": 1.04,
    "has_drive_thru": 1,
    "has_breakfast": 1,
    "has_late_night": 1,
    "has_delivery": 1
  },
  {
    "store_number": "002252",
    "name": "Taco Bell",
    "lat": 45.621122790265375,
    "lon": -122.55227518117415,
    "city": "Vancouver",
    "state": "WA",
    "zip": "98684",
    "price_index": 1.02,
    "has_drive_thru": 1,
    "has_breakfast": 1,
    "has_late_night": 1,
    "has_delivery": 1
  },
  {
    "store_number": "002253",
    "name": "Taco Bell",
    "lat": 45.49494116171786,
    "lon": -122.8092648088932,
    "city": "Beaverton",
    "state": "OR",
    "zip": "97005",
    "price_index": 1.02,
    "has_drive_thru": 1,
    "has_breakfast": 1,
    "has_late_night": 1,
    "has_delivery": 1
  },
  {
    "store_number": "002258",
    "name": "Taco Bell",
    "lat": 35.60485166079504,
    "lon": -87.06626951694489,
    "city": "Columbia",
    "state": "TN",
    "zip": "38401",
    "price_index": 0.97,
    "has_drive_thru": 1,
    "has_breakfast": 0,
    "has_late_night": 1,
    "has_delivery": 1
  },
  {
    "store_number": "002260",
    "name": "Taco Bell",
    "lat": 42.46009074071353,
    "lon": -83.14707800745964,
    "city": "Ferndale",
    "state": "MI",
    "zip": "48220",
    "price_index": 1.08,
    "has_drive_thru": 1,
    "has_breakfast": 0,
    "has_late_night": 1,
    "has_delivery": 1
  },
  {
    "store_number": "002263",
    "name": "Taco Bell",
    "lat": 39.74516684417811,
    "lon": -84.18265342712402,
    "city": "Dayton",
    "state": "OH",
    "zip": "45409",
    "price_index": 1.0,
    "has_drive_thru": 1,
    "has_breakfast": 0,
    "has_late_night": 1,
    "has_delivery": 1
  },
  {
    "store_number": "002274",
    "name": "Taco Bell",
    "lat": 39.0147877694527,
    "lon": -95.6812978238031,
    "city": "Topeka",
    "state": "KS",
    "zip": "66605",
    "price_index": 0.92,
    "has_drive_thru": 1,
    "has_breakfast": 1,
    "has_late_night": 1,
    "has_delivery": 1
  },
  {
    "store_number": "002278",
    "name": "Taco Bell",
    "lat": 37.24122130150772,
    "lon": -93.30791473388672,
    "city": "Springfield",
    "state": "MO",
    "zip": "65803",
    "price_index": 0.99,
    "has_drive_thru": 1,
    "has_breakfast": 0,
    "has_late_night": 1,
    "has_delivery": 1
  },
  {
    "store_number": "002279",
    "name": "Taco Bell",
    "lat": 41.451856968768816,
    "lon": -81.80180139375352,
    "city": "Cleveland",
    "state": "OH",
    "zip": "44111",
    "price_index": 0.99,
    "has_drive_thru": 1,
    "has_breakfast": 1,
    "has_late_night": 1,
    "has_delivery": 1
  },
  {
    "store_number": "002289",
    "name": "Taco Bell",
    "lat": 39.28511084497489,
    "lon": -84.44557347896989,
    "city": "Cincinnati",
    "state": "OH",
    "zip": "45246",
    "price_index": 1.01,
    "has_drive_thru": 1,
    "has_breakfast": 0,
    "has_late_night": 1,
    "has_delivery": 1
  },
  {
    "store_number": "002302",
    "name": "Taco Bell",
    "lat": 35.97311902232418,
    "lon": -83.9845335127915,
    "city": "Knoxville",
    "state": "TN",
    "zip": "37921",
    "price_index": 0.99,
    "has_drive_thru": 1,
    "has_breakfast": 1,
    "has_late_night": 1,
    "has_delivery": 1
  },
  {
    "store_number": "002309",
    "name": "Taco Bell",
    "lat": 64.85296237417109,
    "lon": -147.71383354071077,
    "city": "Fairbanks",
    "state": "AK",
    "zip": "99701",
    "price_index": 1.17,
    "has_drive_thru": 1,
    "has_breakfast": 1,
    "has_late_night": 1,
    "has_delivery": 1
  },
  {
    "store_number": "002323",
    "name": "Taco Bell",
    "lat": 39.6963045422037,
    "lon": -104.81132105739562,
    "city": "Aurora",
    "state": "CO",
    "zip": "80012",
    "price_index": 1.03,
    "has_drive_thru": 1,
    "has_breakfast": 1,
    "has_late_night": 1,
    "has_delivery": 1
  },
  {
    "store_number": "002326",
    "name": "Taco Bell",
    "lat": 37.758762167157776,
    "lon": -77.46692775632255,
    "city": "Ashland",
    "state": "VA",
    "zip": "23005",
    "price_index": 1.03,
    "has_drive_thru": 1,
    "has_breakfast": 0,
    "has_late_night": 1,
    "has_delivery": 1
  },
  {
    "store_number": "002329",
    "name": "Taco Bell",
    "lat": 39.08599868095965,
    "lon": -95.6655022949144,
    "city": "Topeka",
    "state": "KS",
    "zip": "66608",
    "price_index": 0.92,
    "has_drive_thru": 1,
    "has_breakfast": 1,
    "has_late_night": 1,
    "has_delivery": 1
  },
  {
    "store_number": "002358",
    "name": "Taco Bell",
    "lat": 38.704124531970805,
    "lon": -93.2509258389473,
    "city": "Sedalia",
    "state": "MO",
    "zip": "65301",
    "price_index": 0.98,
    "has_drive_thru": 1,
    "has_breakfast": 0,
    "has_late_night": 1,
    "has_delivery": 1
  },
  {
    "store_number": "002360",
    "name": "Taco Bell",
    "lat": 41.93710903648292,
    "lon": -88.07795606556283,
    "city": "Glendale Heights",
    "state": "IL",
    "zip": "60139",
    "price_index": 1.05,
    "has_drive_thru": 1,
    "has_breakfast": 0,
    "has_late_night": 1,
    "has_delivery": 1
  },
  {
    "store_number": "002363",
    "name": "Taco Bell",
    "lat": 40.007754036565494,
    "lon": -74.79672248925012,
    "city": "Mount Holly",
    "state": "NJ",
    "zip": "08060",
    "price_index": 1.06,
    "has_drive_thru": 1,
    "has_breakfast": 0,
    "has_late_night": 1,
    "has_delivery": 1
  },
  {
    "store_number": "002365",
    "name": "Taco Bell",
    "lat": 45.05743367470689,
    "lon": -93.2482225315382,
    "city": "Minneapolis",
    "state": "MN",
    "zip": "55421",
    "price_index": 0.97,
    "has_drive_thru": 1,
    "has_breakfast": 1,
    "has_late_night": 1,
    "has_delivery": 1
  },
  {
    "store_number": "002367",
    "name": "Taco Bell",
    "lat": 38.771442220753606,
    "lon": -93.73488754034048,
    "city": "Warrensburg",
    "state": "MO",
    "zip": "64093",
    "price_index": 0.99,
    "has_drive_thru": 1,
    "has_breakfast": 0,
    "has_late_night": 1,
    "has_delivery": 1
  },
  {
    "store_number": "002384",
    "name": "Taco Bell",
    "lat": 45.003706062809954,
    "lon": -93.22792484432284,
    "city": "Minneapolis",
    "state": "MN",
    "zip": "55413",
    "price_index": 0.98,
    "has_drive_thru": 1,
    "has_breakfast": 1,
    "has_late_night": 1,
    "has_delivery": 1
  },
  {
    "store_number": "002389",
    "name": "Taco Bell",
    "lat": 34.12942155582617,
    "lon": -117.89335288085829,
    "city": "Azusa",
    "state": "CA",
    "zip": "91702",
    "price_index": 1.02,
    "has_drive_thru": 1,
    "has_breakfast": 1,
    "has_late_night": 1,
    "has_delivery": 1
  },
  {
    "store_number": "002395",
    "name": "Taco Bell",
    "lat": 44.8973854959025,
    "lon": -93.08015628601424,
    "city": "Saint Paul",
    "state": "MN",
    "zip": "55118",
    "price_index": 0.98,
    "has_drive_thru": 1,
    "has_breakfast": 1,
    "has_late_night": 1,
    "has_delivery": 1
  },
  {
    "store_number": "002396",
    "name": "Taco Bell",
    "lat": 44.921793910514154,
    "lon": -93.47199679167716,
    "city": "Minnetonka",
    "state": "MN",
    "zip": "55345",
    "price_index": 0.98,
    "has_drive_thru": 1,
    "has_breakfast": 1,
    "has_late_night": 1,
    "has_delivery": 1
  },
  {
    "store_number": "002398",
    "name": "Taco Bell",
    "lat": 40.03687588998626,
    "lon": -74.61745649510837,
    "city": "Wrightstown",
    "state": "NJ",
    "zip": "08562",
    "price_index": 0.96,
    "has_drive_thru": 1,
    "has_breakfast": 0,
    "has_late_night": 1,
    "has_delivery": 1
  },
  {
    "store_number": "002401",
    "name": "Taco Bell",
    "lat": 34.820616777041536,
    "lon": -92.23313190044337,
    "city": "Sherwood",
    "state": "AR",
    "zip": "72120",
    "price_index": 0.99,
    "has_drive_thru": 1,
    "has_breakfast": 0,
    "has_late_night": 1,
    "has_delivery": 1
  },
  {
    "store_number": "002403",
    "name": "Taco Bell",
    "lat": 45.5192152515349,
    "lon": -123.00095952582524,
    "city": "Hillsboro",
    "state": "OR",
    "zip": "97123",
    "price_index": 1.02,
    "has_drive_thru": 1,
    "has_breakfast": 1,
    "has_late_night": 1,
    "has_delivery": 1
  },
  {
    "store_number": "002421",
    "name": "Taco Bell",
    "lat": 44.972128875588936,
    "lon": -93.36443804209921,
    "city": "Golden Valley",
    "state": "MN",
    "zip": "55426",
    "price_index": 0.98,
    "has_drive_thru": 1,
    "has_breakfast": 1,
    "has_late_night": 1,
    "has_delivery": 1
  },
  {
    "store_number": "002425",
    "name": "Taco Bell",
    "lat": 33.95790879801374,
    "lon": -84.13447953295872,
    "city": "Duluth",
    "state": "GA",
    "zip": "30096",
    "price_index": 0.99,
    "has_drive_thru": 1,
    "has_breakfast": 1,
    "has_late_night": 1,
    "has_delivery": 1
  },
  {
    "store_number": "002426",
    "name": "Taco Bell",
    "lat": 35.00616379979452,
    "lon": -80.5577377974987,
    "city": "Monroe",
    "state": "NC",
    "zip": "28110",
    "price_index": 0.99,
    "has_drive_thru": 1,
    "has_breakfast": 1,
    "has_late_night": 1,
    "has_delivery": 1
  },
  {
    "store_number": "002427",
    "name": "Taco Bell",
    "lat": 33.59199790948473,
    "lon": -101.8556803255342,
    "city": "Lubbock",
    "state": "TX",
    "zip": "79401",
    "price_index": 0.79,
    "has_drive_thru": 1,
    "has_breakfast": 0,
    "has_late_night": 1,
    "has_delivery": 1
  },
  {
    "store_number": "002433",
    "name": "Taco Bell",
    "lat": 41.82543206157541,
    "lon": -87.79701320221648,
    "city": "Berwyn",
    "state": "IL",
    "zip": "60402",
    "price_index": 1.05,
    "has_drive_thru": 1,
    "has_breakfast": 0,
    "has_late_night": 1,
    "has_delivery": 1
  },
  {
    "store_number": "002434",
    "name": "Taco Bell",
    "lat": 29.58585737328521,
    "lon": -95.21169304847717,
    "city": "Houston",
    "state": "TX",
    "zip": "77089",
    "price_index": 1.0,
    "has_drive_thru": 1,
    "has_breakfast": 0,
    "has_late_night": 1,
    "has_delivery": 1
  },
  {
    "store_number": "002439",
    "name": "Taco Bell",
    "lat": 35.33683346158165,
    "lon": -94.42316690509954,
    "city": "Fort Smith",
    "state": "AR",
    "zip": "72901",
    "price_index": 0.99,
    "has_drive_thru": 1,
    "has_breakfast": 0,
    "has_late_night": 1,
    "has_delivery": 1
  },
  {
    "store_number": "002440",
    "name": "Taco Bell",
    "lat": 42.54203523725801,
    "lon": -83.78660045097604,
    "city": "Brighton",
    "state": "MI",
    "zip": "48116",
    "price_index": 1.08,
    "has_drive_thru": 1,
    "has_breakfast": 0,
    "has_late_night": 1,
    "has_delivery": 1
  },
  {
    "store_number": "002442",
    "name": "Taco Bell",
    "lat": 45.40651419193231,
    "lon": -122.56860186161248,
    "city": "Clackamas",
    "state": "OR",
    "zip": "97015",
    "price_index": 1.02,
    "has_drive_thru": 1,
    "has_breakfast": 1,
    "has_late_night": 1,
    "has_delivery": 1
  },
  {
    "store_number": "002444",
    "name": "Taco Bell",
    "lat": 27.880859888187814,
    "lon": -82.82856963110135,
    "city": "Largo",
    "state": "FL",
    "zip": "33774",
    "price_index": 0.97,
    "has_drive_thru": 1,
    "has_breakfast": 0,
    "has_late_night": 1,
    "has_delivery": 1
  },
  {
    "store_number": "002448",
    "name": "Taco Bell",
    "lat": 27.915833515061955,
    "lon": -82.73247223513508,
    "city": "Clearwater",
    "state": "FL",
    "zip": "33764",
    "price_index": 0.98,
    "has_drive_thru": 1,
    "has_breakfast": 0,
    "has_late_night": 1,
    "has_delivery": 1
  },
  {
    "store_number": "002450",
    "name": "Taco Bell",
    "lat": 34.39555184711083,
    "lon": -118.9202903939045,
    "city": "Fillmore",
    "state": "CA",
    "zip": "93015",
    "price_index": 1.01,
    "has_drive_thru": 1,
    "has_breakfast": 1,
    "has_late_night": 1,
    "has_delivery": 1
  },
  {
    "store_number": "002458",
    "name": "Taco Bell",
    "lat": 34.27920872629297,
    "lon": -118.88363291324822,
    "city": "Moorpark",
    "state": "CA",
    "zip": "93021",
    "price_index": 1.02,
    "has_drive_thru": 1,
    "has_breakfast": 1,
    "has_late_night": 1,
    "has_delivery": 1
  },
  {
    "store_number": "002459",
    "name": "Taco Bell",
    "lat": 41.78094868070382,
    "lon": -88.31737310280307,
    "city": "Aurora",
    "state": "IL",
    "zip": "60506",
    "price_index": 1.04,
    "has_drive_thru": 1,
    "has_breakfast": 0,
    "has_late_night": 1,
    "has_delivery": 1
  },
  {
    "store_number": "002463",
    "name": "Taco Bell",
    "lat": 39.524640592954945,
    "lon": -122.21245095139238,
    "city": "Willows",
    "state": "CA",
    "zip": "95988",
    "price_index": 1.05,
    "has_drive_thru": 1,
    "has_breakfast": 1,
    "has_late_night": 1,
    "has_delivery": 1
  },
  {
    "store_number": "002469",
    "name": "Taco Bell",
    "lat": 42.72207167534047,
    "lon": -84.42434675529506,
    "city": "Okemos",
    "state": "MI",
    "zip": "48864",
    "price_index": 1.09,
    "has_drive_thru": 1,
    "has_breakfast": 0,
    "has_late_night": 1,
    "has_delivery": 1
  },
  {
    "store_number": "002471",
    "name": "Taco Bell",
    "lat": 39.235476426144174,
    "lon": -121.03791760601138,
    "city": "Grass Valley",
    "state": "CA",
    "zip": "95945",
    "price_index": 0.93,
    "has_drive_thru": 1,
    "has_breakfast": 1,
    "has_late_night": 1,
    "has_delivery": 1
  },
  {
    "store_number": "002473",
    "name": "Taco Bell",
    "lat": 39.83621867398905,
    "lon": -75.08874714374542,
    "city": "Deptford",
    "state": "NJ",
    "zip": "08096",
    "price_index": 1.05,
    "has_drive_thru": 1,
    "has_breakfast": 0,
    "has_late_night": 1,
    "has_delivery": 1
  },
  {
    "store_number": "002474",
    "name": "Taco Bell",
    "lat": 34.92605072654064,
    "lon": -120.43646965922562,
    "city": "Santa Maria",
    "state": "CA",
    "zip": "93454",
    "price_index": 1.06,
    "has_drive_thru": 1,
    "has_breakfast": 0,
    "has_late_night": 1,
    "has_delivery": 1
  },
  {
    "store_number": "002487",
    "name": "Taco Bell",
    "lat": 39.925481047337165,
    "lon": -82.88048651746767,
    "city": "Columbus",
    "state": "OH",
    "zip": "43232",
    "price_index": 0.99,
    "has_drive_thru": 1,
    "has_breakfast": 1,
    "has_late_night": 1,
    "has_delivery": 1
  },
  {
    "store_number": "002491",
    "name": "Taco Bell",
    "lat": 21.388188769844106,
    "lon": -157.9559533933833,
    "city": "Pearl City",
    "state": "HI",
    "zip": "96782",
    "price_index": 1.1,
    "has_drive_thru": 1,
    "has_breakfast": 1,
    "has_late_night": 1,
    "has_delivery": 1
  },
  {
    "store_number": "002494",
    "name": "Taco Bell",
    "lat": 41.13627178131303,
    "lon": -81.63787021304415,
    "city": "Fairlawn",
    "state": "OH",
    "zip": "44333",
    "price_index": 1.0,
    "has_drive_thru": 1,
    "has_breakfast": 1,
    "has_late_night": 1,
    "has_delivery": 1
  },
  {
    "store_number": "002497",
    "name": "Taco Bell",
    "lat": 39.42989925980587,
    "lon": -75.04081068325604,
    "city": "Vineland",
    "state": "NJ",
    "zip": "08360",
    "price_index": 1.06,
    "has_drive_thru": 1,
    "has_breakfast": 0,
    "has_late_night": 1,
    "has_delivery": 1
  },
  {
    "store_number": "002499",
    "name": "Taco Bell",
    "lat": 41.57970753038655,
    "lon": -83.66379484534258,
    "city": "Maumee",
    "state": "OH",
    "zip": "43537",
    "price_index": 1.0,
    "has_drive_thru": 1,
    "has_breakfast": 1,
    "has_late_night": 1,
    "has_delivery": 1
  },
  {
    "store_number": "002500",
    "name": "Taco Bell",
    "lat": 41.62488264892056,
    "lon": -83.62539996208397,
    "city": "Toledo",
    "state": "OH",
    "zip": "43609",
    "price_index": 1.0,
    "has_drive_thru": 1,
    "has_breakfast": 1,
    "has_late_night": 1,
    "has_delivery": 1
  },
  {
    "store_number": "002513",
    "name": "Taco Bell",
    "lat": 41.792306778611646,
    "lon": -87.79567368331305,
    "city": "Chicago",
    "state": "IL",
    "zip": "60638",
    "price_index": 1.05,
    "has_drive_thru": 1,
    "has_breakfast": 0,
    "has_late_night": 1,
    "has_delivery": 1
  },
  {
    "store_number": "002517",
    "name": "Taco Bell",
    "lat": 38.663673224904585,
    "lon": -94.36662719007677,
    "city": "Harrisonville",
    "state": "MO",
    "zip": "64701",
    "price_index": 0.99,
    "has_drive_thru": 1,
    "has_breakfast": 0,
    "has_late_night": 1,
    "has_delivery": 1
  },
  {
    "store_number": "002518",
    "name": "Taco Bell",
    "lat": 39.19256372557171,
    "lon": -96.60670072655194,
    "city": "Manhattan",
    "state": "KS",
    "zip": "66502",
    "price_index": 0.92,
    "has_drive_thru": 1,
    "has_breakfast": 1,
    "has_late_night": 1,
    "has_delivery": 1
  },
  {
    "store_number": "002525",
    "name": "Taco Bell",
    "lat": 39.2910310530058,
    "lon": -84.39617604017258,
    "city": "Sharonville",
    "state": "OH",
    "zip": "45241",
    "price_index": 1.01,
    "has_drive_thru": 1,
    "has_breakfast": 1,
    "has_late_night": 1,
    "has_delivery": 1
  },
  {
    "store_number": "002528",
    "name": "Taco Bell",
    "lat": 39.67403928215364,
    "lon": -104.79002505540848,
    "city": "Aurora",
    "state": "CO",
    "zip": "80013",
    "price_index": 1.03,
    "has_drive_thru": 1,
    "has_breakfast": 1,
    "has_late_night": 1,
    "has_delivery": 1
  },
  {
    "store_number": "002529",
    "name": "Taco Bell",
    "lat": 33.729731884736445,
    "lon": -117.99834796789582,
    "city": "Huntington Beach",
    "state": "CA",
    "zip": "92647",
    "price_index": 1.05,
    "has_drive_thru": 1,
    "has_breakfast": 1,
    "has_late_night": 1,
    "has_delivery": 1
  },
  {
    "store_number": "002531",
    "name": "Taco Bell",
    "lat": 34.50674250807087,
    "lon": -117.32778941096512,
    "city": "Victorville",
    "state": "CA",
    "zip": "92392",
    "price_index": 1.07,
    "has_drive_thru": 1,
    "has_breakfast": 1,
    "has_late_night": 1,
    "has_delivery": 1
  },
  {
    "store_number": "002542",
    "name": "Taco Bell",
    "lat": 39.741569185208704,
    "lon": -105.2005484663675,
    "city": "Golden",
    "state": "CO",
    "zip": "80401",
    "price_index": 1.03,
    "has_drive_thru": 1,
    "has_breakfast": 1,
    "has_late_night": 1,
    "has_delivery": 1
  },
  {
    "store_number": "002552",
    "name": "Taco Bell",
    "lat": 35.25000001924716,
    "lon": -91.69197767972946,
    "city": "Searcy",
    "state": "AR",
    "zip": "72143",
    "price_index": 0.99,
    "has_drive_thru": 1,
    "has_breakfast": 0,
    "has_late_night": 1,
    "has_delivery": 1
  },
  {
    "store_number": "002569",
    "name": "Taco Bell",
    "lat": 32.737448724278444,
    "lon": -96.28315507317893,
    "city": "Terrell",
    "state": "TX",
    "zip": "75160",
    "price_index": 0.91,
    "has_drive_thru": 1,
    "has_breakfast": 0,
    "has_late_night": 1,
    "has_delivery": 1
  },
  {
    "store_number": "002580",
    "name": "Taco Bell",
    "lat": 32.99373267399565,
    "lon": -80.03949661622755,
    "city": "Goose Creek",
    "state": "SC",
    "zip": "29445",
    "price_index": 0.97,
    "has_drive_thru": 1,
    "has_breakfast": 0,
    "has_late_night": 1,
    "has_delivery": 1
  },
  {
    "store_number": "002582",
    "name": "Taco Bell",
    "lat": 32.79453725679027,
    "lon": -96.61146551370621,
    "city": "Mesquite",
    "state": "TX",
    "zip": "75150",
    "price_index": 0.98,
    "has_drive_thru": 1,
    "has_breakfast": 1,
    "has_late_night": 1,
    "has_delivery": 1
  },
  {
    "store_number": "002595",
    "name": "Taco Bell",
    "lat": 26.334342956460663,
    "lon": -80.20226747612469,
    "city": "Boca Raton",
    "state": "FL",
    "zip": "33428",
    "price_index": 1.04,
    "has_drive_thru": 1,
    "has_breakfast": 1,
    "has_late_night": 1,
    "has_delivery": 1
  },
  {
    "store_number": "002609",
    "name": "Taco Bell",
    "lat": 34.185835215388465,
    "lon": -97.14380205544042,
    "city": "Ardmore",
    "state": "OK",
    "zip": "73401",
    "price_index": 0.98,
    "has_drive_thru": 1,
    "has_breakfast": 0,
    "has_late_night": 1,
    "has_delivery": 1
  },
  {
    "store_number": "002613",
    "name": "Taco Bell",
    "lat": 39.53194902892926,
    "lon": -107.32492983341217,
    "city": "Glenwood Springs",
    "state": "CO",
    "zip": "81601",
    "price_index": 1.13,
    "has_drive_thru": 1,
    "has_breakfast": 1,
    "has_late_night": 1,
    "has_delivery": 1
  },
  {
    "store_number": "002615",
    "name": "Taco Bell",
    "lat": 40.70207410428792,
    "lon": -73.42750952394454,
    "city": "Amityville",
    "state": "NY",
    "zip": "11701",
    "price_index": 1.05,
    "has_drive_thru": 1,
    "has_breakfast": 1,
    "has_late_night": 1,
    "has_delivery": 1
  },
  {
    "store_number": "002616",
    "name": "Taco Bell",
    "lat": 40.738284938816506,
    "lon": -73.31999927759176,
    "city": "North Babylon",
    "state": "NY",
    "zip": "11703",
    "price_index": 1.05,
    "has_drive_thru": 1,
    "has_breakfast": 1,
    "has_late_night": 1,
    "has_delivery": 1
  },
  {
    "store_number": "002617",
    "name": "Taco Bell",
    "lat": 40.683339616517536,
    "lon": -73.35292795303758,
    "city": "Lindenhurst",
    "state": "NY",
    "zip": "11757",
    "price_index": 1.05,
    "has_drive_thru": 1,
    "has_breakfast": 1,
    "has_late_night": 1,
    "has_delivery": 1
  },
  {
    "store_number": "002619",
    "name": "Taco Bell",
    "lat": 31.748863005689905,
    "lon": -93.08193252237288,
    "city": "Natchitoches",
    "state": "LA",
    "zip": "71457",
    "price_index": 0.99,
    "has_drive_thru": 1,
    "has_breakfast": 0,
    "has_late_night": 1,
    "has_delivery": 1
  },
  {
    "store_number": "002622",
    "name": "Taco Bell",
    "lat": 45.48672034076847,
    "lon": -122.74437301261048,
    "city": "Portland",
    "state": "OR",
    "zip": "97225",
    "price_index": 1.02,
    "has_drive_thru": 1,
    "has_breakfast": 1,
    "has_late_night": 1,
    "has_delivery": 1
  },
  {
    "store_number": "002633",
    "name": "Taco Bell",
    "lat": 32.74571833111253,
    "lon": -97.223239839077,
    "city": "Fort Worth",
    "state": "TX",
    "zip": "76112",
    "price_index": 1.03,
    "has_drive_thru": 1,
    "has_breakfast": 1,
    "has_late_night": 1,
    "has_delivery": 1
  },
  {
    "store_number": "002636",
    "name": "Taco Bell",
    "lat": 32.71900379906292,
    "lon": -96.61868063500151,
    "city": "Balch Springs",
    "state": "TX",
    "zip": "75180",
    "price_index": 0.97,
    "has_drive_thru": 1,
    "has_breakfast": 1,
    "has_late_night": 1,
    "has_delivery": 1
  },
  {
    "store_number": "002643",
    "name": "Taco Bell",
    "lat": 39.5199494930169,
    "lon": -104.76595759391785,
    "city": "Parker",
    "state": "CO",
    "zip": "80138",
    "price_index": 1.04,
    "has_drive_thru": 1,
    "has_breakfast": 1,
    "has_late_night": 1,
    "has_delivery": 1
  },
  {
    "store_number": "002649",
    "name": "Taco Bell / KFC",
    "lat": 32.787389264873106,
    "lon": -79.95377679524928,
    "city": "Charleston",
    "state": "SC",
    "zip": "29403",
    "price_index": 0.96,
    "has_drive_thru": 1,
    "has_breakfast": 0,
    "has_late_night": 1,
    "has_delivery": 1
  },
  {
    "store_number": "002661",
    "name": "Taco Bell",
    "lat": 41.649241660105076,
    "lon": -83.52161072200033,
    "city": "Toledo",
    "state": "OH",
    "zip": "43605",
    "price_index": 0.99,
    "has_drive_thru": 1,
    "has_breakfast": 1,
    "has_late_night": 1,
    "has_delivery": 1
  },
  {
    "store_number": "002665",
    "name": "Taco Bell",
    "lat": 38.78808192776699,
    "lon": -121.22659653425217,
    "city": "Rocklin",
    "state": "CA",
    "zip": "95677",
    "price_index": 0.99,
    "has_drive_thru": 1,
    "has_breakfast": 1,
    "has_late_night": 1,
    "has_delivery": 1
  },
  {
    "store_number": "002669",
    "name": "Taco Bell / Pizza Hut",
    "lat": 33.74533910688237,
    "lon": -118.1049467026564,
    "city": "Seal Beach",
    "state": "CA",
    "zip": "90740",
    "price_index": 1.09,
    "has_drive_thru": 1,
    "has_breakfast": 1,
    "has_late_night": 1,
    "has_delivery": 1
  },
  {
    "store_number": "002674",
    "name": "Taco Bell",
    "lat": 39.90629686804321,
    "lon": -75.28869242107722,
    "city": "Glenolden",
    "state": "PA",
    "zip": "19036",
    "price_index": 1.06,
    "has_drive_thru": 1,
    "has_breakfast": 0,
    "has_late_night": 1,
    "has_delivery": 1
  },
  {
    "store_number": "002679",
    "name": "Taco Bell",
    "lat": 39.49419311342761,
    "lon": -86.06425388599746,
    "city": "Franklin",
    "state": "IN",
    "zip": "46131",
    "price_index": 0.98,
    "has_drive_thru": 1,
    "has_breakfast": 1,
    "has_late_night": 1,
    "has_delivery": 1
  },
  {
    "store_number": "002681",
    "name": "Taco Bell",
    "lat": 42.60144516923809,
    "lon": -82.9520048899667,
    "city": "Clinton Township",
    "state": "MI",
    "zip": "48038",
    "price_index": 1.02,
    "has_drive_thru": 1,
    "has_breakfast": 1,
    "has_late_night": 1,
    "has_delivery": 1
  },
  {
    "store_number": "002682",
    "name": "Taco Bell",
    "lat": 42.01005350448125,
    "lon": -88.07962417602533,
    "city": "Schaumburg",
    "state": "IL",
    "zip": "60193",
    "price_index": 0.96,
    "has_drive_thru": 1,
    "has_breakfast": 0,
    "has_late_night": 1,
    "has_delivery": 1
  },
  {
    "store_number": "002686",
    "name": "Taco Bell",
    "lat": 40.98427673448952,
    "lon": -81.49233065080807,
    "city": "Akron",
    "state": "OH",
    "zip": "44312",
    "price_index": 0.99,
    "has_drive_thru": 1,
    "has_breakfast": 1,
    "has_late_night": 1,
    "has_delivery": 1
  },
  {
    "store_number": "002689",
    "name": "Taco Bell - Live M\u00e1s Caf\u00e9",
    "lat": 29.680382783181383,
    "lon": -95.12291199994706,
    "city": "Deer Park",
    "state": "TX",
    "zip": "77536",
    "price_index": 1.0,
    "has_drive_thru": 1,
    "has_breakfast": 1,
    "has_late_night": 1,
    "has_delivery": 1
  },
  {
    "store_number": "002693",
    "name": "Taco Bell",
    "lat": 41.710178163920204,
    "lon": -88.06827150290701,
    "city": "Bolingbrook",
    "state": "IL",
    "zip": "60440",
    "price_index": 1.05,
    "has_drive_thru": 1,
    "has_breakfast": 0,
    "has_late_night": 1,
    "has_delivery": 1
  },
  {
    "store_number": "002695",
    "name": "Taco Bell",
    "lat": 40.84240061083675,
    "lon": -73.28651775489561,
    "city": "Commack",
    "state": "NY",
    "zip": "11725",
    "price_index": 1.05,
    "has_drive_thru": 1,
    "has_breakfast": 1,
    "has_late_night": 1,
    "has_delivery": 1
  },
  {
    "store_number": "002697",
    "name": "Taco Bell",
    "lat": 40.72773084615443,
    "lon": -73.22657972408864,
    "city": "Bay Shore",
    "state": "NY",
    "zip": "11706",
    "price_index": 1.05,
    "has_drive_thru": 1,
    "has_breakfast": 1,
    "has_late_night": 1,
    "has_delivery": 1
  },
  {
    "store_number": "002698",
    "name": "Taco Bell",
    "lat": 40.91868918526406,
    "lon": -73.05247843265533,
    "city": "Port Jefferson Station",
    "state": "NY",
    "zip": "11776",
    "price_index": 1.05,
    "has_drive_thru": 1,
    "has_breakfast": 1,
    "has_late_night": 1,
    "has_delivery": 1
  },
  {
    "store_number": "002700",
    "name": "Taco Bell",
    "lat": 33.85983580425057,
    "lon": -117.92314392498346,
    "city": "Fullerton",
    "state": "CA",
    "zip": "92832",
    "price_index": 1.05,
    "has_drive_thru": 1,
    "has_breakfast": 1,
    "has_late_night": 1,
    "has_delivery": 1
  },
  {
    "store_number": "002709",
    "name": "Taco Bell",
    "lat": 36.798638439852375,
    "lon": -76.17612201557992,
    "city": "Virginia Beach",
    "state": "VA",
    "zip": "23464",
    "price_index": 0.99,
    "has_drive_thru": 1,
    "has_breakfast": 1,
    "has_late_night": 1,
    "has_delivery": 1
  },
  {
    "store_number": "002737",
    "name": "Taco Bell",
    "lat": 34.74108787908771,
    "lon": -92.37274728253396,
    "city": "Little Rock",
    "state": "AR",
    "zip": "72205",
    "price_index": 0.98,
    "has_drive_thru": 1,
    "has_breakfast": 0,
    "has_late_night": 1,
    "has_delivery": 1
  },
  {
    "store_number": "002744",
    "name": "Taco Bell",
    "lat": 41.71597128977,
    "lon": -83.68421047925943,
    "city": "Sylvania",
    "state": "OH",
    "zip": "43560",
    "price_index": 1.01,
    "has_drive_thru": 1,
    "has_breakfast": 1,
    "has_late_night": 1,
    "has_delivery": 1
  },
  {
    "store_number": "002747",
    "name": "Taco Bell",
    "lat": 41.68929221538116,
    "lon": -87.80838310718536,
    "city": "Palos Hills",
    "state": "IL",
    "zip": "60465",
    "price_index": 1.05,
    "has_drive_thru": 1,
    "has_breakfast": 0,
    "has_late_night": 1,
    "has_delivery": 1
  },
  {
    "store_number": "002749",
    "name": "Taco Bell",
    "lat": 36.75342156981898,
    "lon": -76.24678015708923,
    "city": "Chesapeake",
    "state": "VA",
    "zip": "23320",
    "price_index": 0.99,
    "has_drive_thru": 1,
    "has_breakfast": 1,
    "has_late_night": 1,
    "has_delivery": 1
  },
  {
    "store_number": "002750",
    "name": "Taco Bell",
    "lat": 41.86447803374293,
    "lon": -87.8113706410204,
    "city": "Forest Park",
    "state": "IL",
    "zip": "60130",
    "price_index": 1.05,
    "has_drive_thru": 1,
    "has_breakfast": 0,
    "has_late_night": 1,
    "has_delivery": 1
  },
  {
    "store_number": "002751",
    "name": "Taco Bell",
    "lat": 38.40862628586552,
    "lon": -121.3792055683859,
    "city": "Elk Grove",
    "state": "CA",
    "zip": "95624",
    "price_index": 1.03,
    "has_drive_thru": 1,
    "has_breakfast": 1,
    "has_late_night": 1,
    "has_delivery": 1
  },
  {
    "store_number": "002762",
    "name": "Taco Bell",
    "lat": 42.25524077268508,
    "lon": -84.36797891558854,
    "city": "Jackson",
    "state": "MI",
    "zip": "49202",
    "price_index": 1.09,
    "has_drive_thru": 1,
    "has_breakfast": 0,
    "has_late_night": 1,
    "has_delivery": 1
  },
  {
    "store_number": "002763",
    "name": "Taco Bell",
    "lat": 33.81208973693908,
    "lon": -117.99278016257958,
    "city": "Stanton",
    "state": "CA",
    "zip": "90680",
    "price_index": 1.06,
    "has_drive_thru": 1,
    "has_breakfast": 1,
    "has_late_night": 1,
    "has_delivery": 1
  },
  {
    "store_number": "002769",
    "name": "Taco Bell",
    "lat": 45.40135406270449,
    "lon": -122.27979004383087,
    "city": "Sandy",
    "state": "OR",
    "zip": "97055",
    "price_index": 1.09,
    "has_drive_thru": 1,
    "has_breakfast": 1,
    "has_late_night": 1,
    "has_delivery": 1
  },
  {
    "store_number": "002779",
    "name": "Taco Bell",
    "lat": 27.895001495263276,
    "lon": -82.75911468415376,
    "city": "Largo",
    "state": "FL",
    "zip": "33771",
    "price_index": 0.97,
    "has_drive_thru": 1,
    "has_breakfast": 0,
    "has_late_night": 1,
    "has_delivery": 1
  },
  {
    "store_number": "002780",
    "name": "Taco Bell",
    "lat": 43.02412168648309,
    "lon": -83.5948446393013,
    "city": "Burton",
    "state": "MI",
    "zip": "48509",
    "price_index": 0.98,
    "has_drive_thru": 1,
    "has_breakfast": 1,
    "has_late_night": 1,
    "has_delivery": 1
  },
  {
    "store_number": "002798",
    "name": "Taco Bell",
    "lat": 34.475166595321326,
    "lon": -114.34465169906616,
    "city": "Lake Havasu City",
    "state": "AZ",
    "zip": "86403",
    "price_index": 0.97,
    "has_drive_thru": 1,
    "has_breakfast": 1,
    "has_late_night": 1,
    "has_delivery": 1
  },
  {
    "store_number": "002804",
    "name": "Taco Bell",
    "lat": 35.25189316542879,
    "lon": -81.02790433061358,
    "city": "Belmont",
    "state": "NC",
    "zip": "28012",
    "price_index": 0.99,
    "has_drive_thru": 1,
    "has_breakfast": 1,
    "has_late_night": 1,
    "has_delivery": 1
  },
  {
    "store_number": "002808",
    "name": "Taco Bell",
    "lat": 35.15518343040507,
    "lon": -79.41709756851196,
    "city": "Aberdeen",
    "state": "NC",
    "zip": "28315",
    "price_index": 1.03,
    "has_drive_thru": 1,
    "has_breakfast": 1,
    "has_late_night": 1,
    "has_delivery": 1
  },
  {
    "store_number": "002821",
    "name": "Taco Bell",
    "lat": 40.50989448048966,
    "lon": -88.95701685551103,
    "city": "Normal",
    "state": "IL",
    "zip": "61761",
    "price_index": 0.94,
    "has_drive_thru": 1,
    "has_breakfast": 0,
    "has_late_night": 1,
    "has_delivery": 1
  },
  {
    "store_number": "002828",
    "name": "Taco Bell",
    "lat": 33.803657839789906,
    "lon": -118.18984255790018,
    "city": "Long Beach",
    "state": "CA",
    "zip": "90806",
    "price_index": 1.09,
    "has_drive_thru": 1,
    "has_breakfast": 1,
    "has_late_night": 1,
    "has_delivery": 1
  },
  {
    "store_number": "002834",
    "name": "Taco Bell",
    "lat": 40.13693959877484,
    "lon": -88.24267974327375,
    "city": "Champaign",
    "state": "IL",
    "zip": "61820",
    "price_index": 0.96,
    "has_drive_thru": 1,
    "has_breakfast": 0,
    "has_late_night": 1,
    "has_delivery": 1
  },
  {
    "store_number": "002836",
    "name": "Taco Bell",
    "lat": 35.73600657547758,
    "lon": -78.65103657648802,
    "city": "Raleigh",
    "state": "NC",
    "zip": "27603",
    "price_index": 1.04,
    "has_drive_thru": 1,
    "has_breakfast": 1,
    "has_late_night": 1,
    "has_delivery": 1
  },
  {
    "store_number": "002837",
    "name": "Taco Bell",
    "lat": 42.29880573228735,
    "lon": -84.02534200812624,
    "city": "Chelsea",
    "state": "MI",
    "zip": "48118",
    "price_index": 1.08,
    "has_drive_thru": 1,
    "has_breakfast": 0,
    "has_late_night": 1,
    "has_delivery": 1
  },
  {
    "store_number": "002838",
    "name": "Taco Bell",
    "lat": 32.793281898411244,
    "lon": -79.86503244193045,
    "city": "Mount Pleasant",
    "state": "SC",
    "zip": "29464",
    "price_index": 0.99,
    "has_drive_thru": 1,
    "has_breakfast": 0,
    "has_late_night": 1,
    "has_delivery": 1
  },
  {
    "store_number": "002851",
    "name": "Taco Bell - Live M\u00e1s Caf\u00e9",
    "lat": 29.9977979971997,
    "lon": -95.16799039678068,
    "city": "Humble",
    "state": "TX",
    "zip": "77346",
    "price_index": 1.02,
    "has_drive_thru": 1,
    "has_breakfast": 1,
    "has_late_night": 1,
    "has_delivery": 1
  },
  {
    "store_number": "002856",
    "name": "Taco Bell",
    "lat": 42.790161574629856,
    "lon": -83.73566785458024,
    "city": "Fenton",
    "state": "MI",
    "zip": "48430",
    "price_index": 0.98,
    "has_drive_thru": 1,
    "has_breakfast": 1,
    "has_late_night": 1,
    "has_delivery": 1
  },
  {
    "store_number": "002863",
    "name": "Taco Bell",
    "lat": 35.17103590511225,
    "lon": -80.84591701626778,
    "city": "Charlotte",
    "state": "NC",
    "zip": "28209",
    "price_index": 0.98,
    "has_drive_thru": 1,
    "has_breakfast": 0,
    "has_late_night": 1,
    "has_delivery": 1
  },
  {
    "store_number": "002870",
    "name": "Taco Bell",
    "lat": 29.448176786751333,
    "lon": -95.07804385852978,
    "city": "Dickinson",
    "state": "TX",
    "zip": "77539",
    "price_index": 0.99,
    "has_drive_thru": 1,
    "has_breakfast": 0,
    "has_late_night": 1,
    "has_delivery": 1
  },
  {
    "store_number": "002872",
    "name": "Taco Bell",
    "lat": 41.718514961113605,
    "lon": -87.83632099628454,
    "city": "Hickory Hills",
    "state": "IL",
    "zip": "60457",
    "price_index": 1.05,
    "has_drive_thru": 1,
    "has_breakfast": 0,
    "has_late_night": 1,
    "has_delivery": 1
  },
  {
    "store_number": "002873",
    "name": "Taco Bell",
    "lat": 41.75237693630584,
    "lon": -87.9733094573021,
    "city": "Darien",
    "state": "IL",
    "zip": "60561",
    "price_index": 1.05,
    "has_drive_thru": 1,
    "has_breakfast": 0,
    "has_late_night": 1,
    "has_delivery": 1
  },
  {
    "store_number": "002875",
    "name": "Taco Bell",
    "lat": 30.284136125356948,
    "lon": -89.751096367836,
    "city": "Slidell",
    "state": "LA",
    "zip": "70458",
    "price_index": 1.0,
    "has_drive_thru": 1,
    "has_breakfast": 0,
    "has_late_night": 1,
    "has_delivery": 1
  },
  {
    "store_number": "002879",
    "name": "Taco Bell",
    "lat": 32.792599684931936,
    "lon": -96.70043148105833,
    "city": "Dallas",
    "state": "TX",
    "zip": "75228",
    "price_index": 0.94,
    "has_drive_thru": 1,
    "has_breakfast": 0,
    "has_late_night": 1,
    "has_delivery": 1
  },
  {
    "store_number": "002882",
    "name": "Taco Bell",
    "lat": 34.97055512349966,
    "lon": -80.99033131266879,
    "city": "Rock Hill",
    "state": "SC",
    "zip": "29732",
    "price_index": 0.99,
    "has_drive_thru": 1,
    "has_breakfast": 1,
    "has_late_night": 1,
    "has_delivery": 1
  },
  {
    "store_number": "002883",
    "name": "Taco Bell",
    "lat": 43.641597659648475,
    "lon": -84.25156205892557,
    "city": "Midland",
    "state": "MI",
    "zip": "48640",
    "price_index": 0.98,
    "has_drive_thru": 1,
    "has_breakfast": 1,
    "has_late_night": 1,
    "has_delivery": 1
  },
  {
    "store_number": "002886",
    "name": "Taco Bell",
    "lat": 29.28930904467369,
    "lon": -94.83129411935806,
    "city": "Galveston",
    "state": "TX",
    "zip": "77551",
    "price_index": 0.99,
    "has_drive_thru": 1,
    "has_breakfast": 0,
    "has_late_night": 1,
    "has_delivery": 1
  },
  {
    "store_number": "002887",
    "name": "Taco Bell",
    "lat": 33.59763065841415,
    "lon": -112.03705680707755,
    "city": "Phoenix",
    "state": "AZ",
    "zip": "85022",
    "price_index": 0.97,
    "has_drive_thru": 1,
    "has_breakfast": 1,
    "has_late_night": 1,
    "has_delivery": 1
  },
  {
    "store_number": "002892",
    "name": "Taco Bell",
    "lat": 45.207391332721976,
    "lon": -93.40347647666931,
    "city": "Anoka",
    "state": "MN",
    "zip": "55303",
    "price_index": 0.98,
    "has_drive_thru": 1,
    "has_breakfast": 1,
    "has_late_night": 1,
    "has_delivery": 1
  },
  {
    "store_number": "002893",
    "name": "Taco Bell",
    "lat": 35.38566279039182,
    "lon": -94.4036453962326,
    "city": "Fort Smith",
    "state": "AR",
    "zip": "72901",
    "price_index": 0.99,
    "has_drive_thru": 1,
    "has_breakfast": 0,
    "has_late_night": 1,
    "has_delivery": 1
  },
  {
    "store_number": "002905",
    "name": "Taco Bell",
    "lat": 34.14048647074683,
    "lon": -117.98849475374709,
    "city": "Monrovia",
    "state": "CA",
    "zip": "91016",
    "price_index": 1.0,
    "has_drive_thru": 1,
    "has_breakfast": 1,
    "has_late_night": 1,
    "has_delivery": 1
  },
  {
    "store_number": "002907",
    "name": "Taco Bell",
    "lat": 42.03453129614077,
    "lon": -87.94019766225945,
    "city": "Des Plaines",
    "state": "IL",
    "zip": "60016",
    "price_index": 0.96,
    "has_drive_thru": 1,
    "has_breakfast": 0,
    "has_late_night": 1,
    "has_delivery": 1
  },
  {
    "store_number": "002926",
    "name": "Taco Bell",
    "lat": 35.058528538440875,
    "lon": -106.58831302823273,
    "city": "Albuquerque",
    "state": "NM",
    "zip": "87108",
    "price_index": 1.02,
    "has_drive_thru": 1,
    "has_breakfast": 1,
    "has_late_night": 1,
    "has_delivery": 1
  },
  {
    "store_number": "002935",
    "name": "Taco Bell",
    "lat": 41.546570868604356,
    "lon": -83.59613035620896,
    "city": "Perrysburg",
    "state": "OH",
    "zip": "43551",
    "price_index": 0.92,
    "has_drive_thru": 1,
    "has_breakfast": 1,
    "has_late_night": 1,
    "has_delivery": 1
  },
  {
    "store_number": "002936",
    "name": "Taco Bell",
    "lat": 25.77962165252268,
    "lon": -80.25605097413057,
    "city": "Miami",
    "state": "FL",
    "zip": "33125",
    "price_index": 1.01,
    "has_drive_thru": 1,
    "has_breakfast": 1,
    "has_late_night": 1,
    "has_delivery": 1
  },
  {
    "store_number": "002937",
    "name": "Taco Bell",
    "lat": 42.44666714491012,
    "lon": -82.91601374745375,
    "city": "Harper Woods",
    "state": "MI",
    "zip": "48225",
    "price_index": 1.03,
    "has_drive_thru": 1,
    "has_breakfast": 1,
    "has_late_night": 1,
    "has_delivery": 1
  },
  {
    "store_number": "002945",
    "name": "Taco Bell",
    "lat": 42.99177248653248,
    "lon": -84.54689741134644,
    "city": "St. Johns",
    "state": "MI",
    "zip": "48879",
    "price_index": 1.09,
    "has_drive_thru": 1,
    "has_breakfast": 0,
    "has_late_night": 1,
    "has_delivery": 1
  },
  {
    "store_number": "002952",
    "name": "Taco Bell",
    "lat": 31.27212653424141,
    "lon": -92.46262420715539,
    "city": "Alexandria",
    "state": "LA",
    "zip": "71301",
    "price_index": 0.99,
    "has_drive_thru": 1,
    "has_breakfast": 0,
    "has_late_night": 1,
    "has_delivery": 1
  },
  {
    "store_number": "002962",
    "name": "Taco Bell",
    "lat": 39.6072694673047,
    "lon": -86.3743892553282,
    "city": "Mooresville",
    "state": "IN",
    "zip": "46158",
    "price_index": 0.97,
    "has_drive_thru": 1,
    "has_breakfast": 1,
    "has_late_night": 1,
    "has_delivery": 1
  },
  {
    "store_number": "002965",
    "name": "Taco Bell",
    "lat": 42.67386848299699,
    "lon": -82.81583047938511,
    "city": "New Baltimore",
    "state": "MI",
    "zip": "48047",
    "price_index": 1.01,
    "has_drive_thru": 1,
    "has_breakfast": 1,
    "has_late_night": 1,
    "has_delivery": 1
  },
  {
    "store_number": "002969",
    "name": "Taco Bell",
    "lat": 39.753063088317205,
    "lon": -86.25065267086029,
    "city": "Indianapolis",
    "state": "IN",
    "zip": "46241",
    "price_index": 0.99,
    "has_drive_thru": 1,
    "has_breakfast": 1,
    "has_late_night": 1,
    "has_delivery": 1
  },
  {
    "store_number": "002981",
    "name": "Taco Bell - Live M\u00e1s Caf\u00e9",
    "lat": 32.859492632046816,
    "lon": -97.23851025851218,
    "city": "Watauga",
    "state": "TX",
    "zip": "76148",
    "price_index": 0.98,
    "has_drive_thru": 1,
    "has_breakfast": 1,
    "has_late_night": 1,
    "has_delivery": 1
  },
  {
    "store_number": "002982",
    "name": "Taco Bell",
    "lat": 41.23890131179091,
    "lon": -81.34345069527626,
    "city": "Streetsboro",
    "state": "OH",
    "zip": "44241",
    "price_index": 0.99,
    "has_drive_thru": 1,
    "has_breakfast": 0,
    "has_late_night": 1,
    "has_delivery": 1
  },
  {
    "store_number": "002984",
    "name": "Taco Bell - Live M\u00e1s Caf\u00e9",
    "lat": 33.651804662352674,
    "lon": -117.64569823445527,
    "city": "Mission Viejo",
    "state": "CA",
    "zip": "92691",
    "price_index": 1.06,
    "has_drive_thru": 1,
    "has_breakfast": 1,
    "has_late_night": 1,
    "has_delivery": 1
  },
  {
    "store_number": "002994",
    "name": "Taco Bell",
    "lat": 33.93489996800895,
    "lon": -84.38015961393242,
    "city": "Sandy Springs",
    "state": "GA",
    "zip": "30328",
    "price_index": 0.91,
    "has_drive_thru": 1,
    "has_breakfast": 0,
    "has_late_night": 1,
    "has_delivery": 1
  },
  {
    "store_number": "002995",
    "name": "Taco Bell",
    "lat": 33.88866329031674,
    "lon": -84.47492127122132,
    "city": "Smyrna",
    "state": "GA",
    "zip": "30080",
    "price_index": 1.01,
    "has_drive_thru": 1,
    "has_breakfast": 1,
    "has_late_night": 1,
    "has_delivery": 1
  },
  {
    "store_number": "002998",
    "name": "Taco Bell",
    "lat": 41.951613180825404,
    "lon": -88.12001019716263,
    "city": "Bloomingdale",
    "state": "IL",
    "zip": "60108",
    "price_index": 1.05,
    "has_drive_thru": 1,
    "has_breakfast": 0,
    "has_late_night": 1,
    "has_delivery": 1
  },
  {
    "store_number": "002999",
    "name": "Taco Bell",
    "lat": 30.21915267388077,
    "lon": -93.37584435939789,
    "city": "Sulphur",
    "state": "LA",
    "zip": "70663",
    "price_index": 1.0,
    "has_drive_thru": 1,
    "has_breakfast": 0,
    "has_late_night": 1,
    "has_delivery": 1
  },
  {
    "store_number": "003026",
    "name": "Taco Bell",
    "lat": 39.14192404028204,
    "lon": -121.62236586213112,
    "city": "Yuba City",
    "state": "CA",
    "zip": "95991",
    "price_index": 0.93,
    "has_drive_thru": 1,
    "has_breakfast": 1,
    "has_late_night": 1,
    "has_delivery": 1
  },
  {
    "store_number": "003052",
    "name": "Taco Bell / Pizza Hut",
    "lat": 34.019467660967535,
    "lon": -118.15410999348387,
    "city": "East Los Angeles",
    "state": "CA",
    "zip": "90022",
    "price_index": 1.1,
    "has_drive_thru": 1,
    "has_breakfast": 0,
    "has_late_night": 1,
    "has_delivery": 1
  },
  {
    "store_number": "003056",
    "name": "Taco Bell",
    "lat": 33.98985419924158,
    "lon": -118.06444607485892,
    "city": "Whittier",
    "state": "CA",
    "zip": "90606",
    "price_index": 1.01,
    "has_drive_thru": 1,
    "has_breakfast": 1,
    "has_late_night": 1,
    "has_delivery": 1
  },
  {
    "store_number": "003074",
    "name": "Taco Bell",
    "lat": 34.20794122756142,
    "lon": -118.62382042357868,
    "city": "Canoga Park",
    "state": "CA",
    "zip": "91307",
    "price_index": 1.0,
    "has_drive_thru": 1,
    "has_breakfast": 1,
    "has_late_night": 1,
    "has_delivery": 1
  },
  {
    "store_number": "003075",
    "name": "Taco Bell",
    "lat": 33.888002889341706,
    "lon": -118.06607723236078,
    "city": "Norwalk",
    "state": "CA",
    "zip": "90650",
    "price_index": 1.06,
    "has_drive_thru": 1,
    "has_breakfast": 1,
    "has_late_night": 1,
    "has_delivery": 1
  },
  {
    "store_number": "003108",
    "name": "Taco Bell",
    "lat": 34.06945406412861,
    "lon": -118.27727012341711,
    "city": "Los Angeles",
    "state": "CA",
    "zip": "90057",
    "price_index": 1.09,
    "has_drive_thru": 1,
    "has_breakfast": 1,
    "has_late_night": 1,
    "has_delivery": 1
  },
  {
    "store_number": "003114",
    "name": "Taco Bell",
    "lat": 34.22842003586312,
    "lon": -118.52772521404745,
    "city": "Northridge",
    "state": "CA",
    "zip": "91325",
    "price_index": 1.07,
    "has_drive_thru": 1,
    "has_breakfast": 1,
    "has_late_night": 1,
    "has_delivery": 1
  },
  {
    "store_number": "003120",
    "name": "Taco Bell",
    "lat": 33.80278071953613,
    "lon": -117.97602854674551,
    "city": "Anaheim",
    "state": "CA",
    "zip": "92804",
    "price_index": 1.06,
    "has_drive_thru": 1,
    "has_breakfast": 1,
    "has_late_night": 1,
    "has_delivery": 1
  },
  {
    "store_number": "003123",
    "name": "Taco Bell",
    "lat": 34.079027080108695,
    "lon": -118.12005388749193,
    "city": "Alhambra",
    "state": "CA",
    "zip": "91801",
    "price_index": 1.02,
    "has_drive_thru": 1,
    "has_breakfast": 1,
    "has_late_night": 1,
    "has_delivery": 1
  },
  {
    "store_number": "003133",
    "name": "Taco Bell",
    "lat": 33.9304313092478,
    "lon": -118.18396680062506,
    "city": "Lynwood",
    "state": "CA",
    "zip": "90262",
    "price_index": 1.09,
    "has_drive_thru": 1,
    "has_breakfast": 0,
    "has_late_night": 1,
    "has_delivery": 1
  },
  {
    "store_number": "003135",
    "name": "Taco Bell",
    "lat": 33.85405415789002,
    "lon": -118.18522363901138,
    "city": "Long Beach",
    "state": "CA",
    "zip": "90805",
    "price_index": 1.07,
    "has_drive_thru": 1,
    "has_breakfast": 1,
    "has_late_night": 1,
    "has_delivery": 1
  },
  {
    "store_number": "003138",
    "name": "Taco Bell",
    "lat": 33.90187780492907,
    "lon": -118.08288663625717,
    "city": "Norwalk",
    "state": "CA",
    "zip": "90650",
    "price_index": 1.06,
    "has_drive_thru": 1,
    "has_breakfast": 1,
    "has_late_night": 1,
    "has_delivery": 1
  },
  {
    "store_number": "003141",
    "name": "Taco Bell",
    "lat": 33.945219923577206,
    "lon": -118.30064486415766,
    "city": "Los Angeles",
    "state": "CA",
    "zip": "90047",
    "price_index": 1.09,
    "has_drive_thru": 1,
    "has_breakfast": 0,
    "has_late_night": 1,
    "has_delivery": 1
  },
  {
    "store_number": "003144",
    "name": "Taco Bell",
    "lat": 34.00326725847459,
    "lon": -118.40690553188324,
    "city": "Culver City",
    "state": "CA",
    "zip": "90230",
    "price_index": 1.07,
    "has_drive_thru": 1,
    "has_breakfast": 1,
    "has_late_night": 1,
    "has_delivery": 1
  },
  {
    "store_number": "003147",
    "name": "Taco Bell",
    "lat": 34.14067139332922,
    "lon": -118.0737084487446,
    "city": "Pasadena",
    "state": "CA",
    "zip": "91107",
    "price_index": 1.02,
    "has_drive_thru": 1,
    "has_breakfast": 1,
    "has_late_night": 1,
    "has_delivery": 1
  },
  {
    "store_number": "003148",
    "name": "Taco Bell",
    "lat": 34.06313715951854,
    "lon": -118.03542204206678,
    "city": "El Monte",
    "state": "CA",
    "zip": "91733",
    "price_index": 1.0,
    "has_drive_thru": 1,
    "has_breakfast": 1,
    "has_late_night": 1,
    "has_delivery": 1
  },
  {
    "store_number": "003155",
    "name": "Taco Bell",
    "lat": 39.67941206892739,
    "lon": -105.05364893544859,
    "city": "Denver",
    "state": "CO",
    "zip": "80227",
    "price_index": 1.04,
    "has_drive_thru": 1,
    "has_breakfast": 1,
    "has_late_night": 1,
    "has_delivery": 1
  },
  {
    "store_number": "003156",
    "name": "Taco Bell / Pizza Hut",
    "lat": 42.00759913329598,
    "lon": -88.0453160405159,
    "city": "Elk Grove Village",
    "state": "IL",
    "zip": "60007",
    "price_index": 1.01,
    "has_drive_thru": 1,
    "has_breakfast": 0,
    "has_late_night": 1,
    "has_delivery": 1
  },
  {
    "store_number": "003157",
    "name": "Taco Bell",
    "lat": 41.77801992857256,
    "lon": -88.28223516048638,
    "city": "Aurora",
    "state": "IL",
    "zip": "60506",
    "price_index": 1.04,
    "has_drive_thru": 1,
    "has_breakfast": 0,
    "has_late_night": 1,
    "has_delivery": 1
  },
  {
    "store_number": "003162",
    "name": "Taco Bell",
    "lat": 29.84833988053165,
    "lon": -95.6452961965033,
    "city": "Houston",
    "state": "TX",
    "zip": "77084",
    "price_index": 0.99,
    "has_drive_thru": 1,
    "has_breakfast": 1,
    "has_late_night": 1,
    "has_delivery": 1
  },
  {
    "store_number": "003163",
    "name": "Taco Bell",
    "lat": 45.38088862289044,
    "lon": -122.75966769136036,
    "city": "Tualatin",
    "state": "OR",
    "zip": "97062",
    "price_index": 1.02,
    "has_drive_thru": 1,
    "has_breakfast": 0,
    "has_late_night": 0,
    "has_delivery": 0
  },
  {
    "store_number": "003164",
    "name": "Taco Bell",
    "lat": 35.110871907624364,
    "lon": -77.06529859578532,
    "city": "New Bern",
    "state": "NC",
    "zip": "28560",
    "price_index": 0.89,
    "has_drive_thru": 1,
    "has_breakfast": 0,
    "has_late_night": 1,
    "has_delivery": 1
  },
  {
    "store_number": "003165",
    "name": "Taco Bell",
    "lat": 30.197976954133217,
    "lon": -93.20997488951186,
    "city": "Lake Charles",
    "state": "LA",
    "zip": "70601",
    "price_index": 1.0,
    "has_drive_thru": 1,
    "has_breakfast": 0,
    "has_late_night": 1,
    "has_delivery": 1
  },
  {
    "store_number": "003168",
    "name": "Taco Bell",
    "lat": 36.2316141278709,
    "lon": -86.75853028893471,
    "city": "Nashville",
    "state": "TN",
    "zip": "37207",
    "price_index": 0.97,
    "has_drive_thru": 1,
    "has_breakfast": 0,
    "has_late_night": 1,
    "has_delivery": 1
  },
  {
    "store_number": "003171",
    "name": "Taco Bell",
    "lat": 37.31919384047319,
    "lon": -120.46885630977788,
    "city": "Merced",
    "state": "CA",
    "zip": "95340",
    "price_index": 1.25,
    "has_drive_thru": 1,
    "has_breakfast": 1,
    "has_late_night": 1,
    "has_delivery": 1
  },
  {
    "store_number": "003176",
    "name": "Taco Bell",
    "lat": 40.65683419100899,
    "lon": -73.63132059574127,
    "city": "Rockville Centre",
    "state": "NY",
    "zip": "11570",
    "price_index": 1.04,
    "has_drive_thru": 1,
    "has_breakfast": 1,
    "has_late_night": 1,
    "has_delivery": 1
  },
  {
    "store_number": "003178",
    "name": "Taco Bell",
    "lat": 40.62597269313822,
    "lon": -73.73665188254563,
    "city": "Lawrence",
    "state": "NY",
    "zip": "11559",
    "price_index": 1.03,
    "has_drive_thru": 1,
    "has_breakfast": 1,
    "has_late_night": 1,
    "has_delivery": 1
  },
  {
    "store_number": "003179",
    "name": "Taco Bell",
    "lat": 40.65412214484542,
    "lon": -73.55895752944762,
    "city": "Merrick",
    "state": "NY",
    "zip": "11566",
    "price_index": 1.04,
    "has_drive_thru": 1,
    "has_breakfast": 1,
    "has_late_night": 1,
    "has_delivery": 1
  },
  {
    "store_number": "003180",
    "name": "Taco Bell",
    "lat": 40.733738990125026,
    "lon": -73.67865280063597,
    "city": "New Hyde Park",
    "state": "NY",
    "zip": "11040",
    "price_index": 1.05,
    "has_drive_thru": 1,
    "has_breakfast": 1,
    "has_late_night": 1,
    "has_delivery": 1
  },
  {
    "store_number": "003186",
    "name": "Taco Bell",
    "lat": 39.56748439834827,
    "lon": -104.90387133789221,
    "city": "Englewood",
    "state": "CO",
    "zip": "80112",
    "price_index": 1.03,
    "has_drive_thru": 1,
    "has_breakfast": 1,
    "has_late_night": 1,
    "has_delivery": 1
  },
  {
    "store_number": "003187",
    "name": "Taco Bell",
    "lat": 45.396018398024495,
    "lon": -122.74425103336398,
    "city": "Tigard",
    "state": "OR",
    "zip": "97224",
    "price_index": 1.02,
    "has_drive_thru": 1,
    "has_breakfast": 1,
    "has_late_night": 1,
    "has_delivery": 1
  },
  {
    "store_number": "003190",
    "name": "Taco Bell",
    "lat": 42.48379808690309,
    "lon": -82.94468663168573,
    "city": "Roseville",
    "state": "MI",
    "zip": "48066",
    "price_index": 1.08,
    "has_drive_thru": 1,
    "has_breakfast": 1,
    "has_late_night": 1,
    "has_delivery": 1
  },
  {
    "store_number": "003192",
    "name": "Taco Bell",
    "lat": 43.015628753383794,
    "lon": -83.51706017555443,
    "city": "Davison",
    "state": "MI",
    "zip": "48423",
    "price_index": 0.98,
    "has_drive_thru": 1,
    "has_breakfast": 1,
    "has_late_night": 1,
    "has_delivery": 1
  },
  {
    "store_number": "003200",
    "name": "Taco Bell",
    "lat": 40.75744047241874,
    "lon": -73.79353232091982,
    "city": "Flushing",
    "state": "NY",
    "zip": "11358",
    "price_index": 1.04,
    "has_drive_thru": 1,
    "has_breakfast": 1,
    "has_late_night": 1,
    "has_delivery": 1
  },
  {
    "store_number": "003203",
    "name": "Taco Bell",
    "lat": 40.67449838979666,
    "lon": -73.48658785970656,
    "city": "Seaford",
    "state": "NY",
    "zip": "11783",
    "price_index": 1.05,
    "has_drive_thru": 1,
    "has_breakfast": 1,
    "has_late_night": 1,
    "has_delivery": 1
  },
  {
    "store_number": "003207",
    "name": "Taco Bell",
    "lat": 35.38286461217746,
    "lon": -119.05056780174424,
    "city": "Bakersfield",
    "state": "CA",
    "zip": "93308",
    "price_index": 1.09,
    "has_drive_thru": 1,
    "has_breakfast": 1,
    "has_late_night": 1,
    "has_delivery": 1
  },
  {
    "store_number": "003212",
    "name": "Taco Bell",
    "lat": 33.87319287051764,
    "lon": -117.99866980826613,
    "city": "Buena Park",
    "state": "CA",
    "zip": "90621",
    "price_index": 1.07,
    "has_drive_thru": 1,
    "has_breakfast": 1,
    "has_late_night": 1,
    "has_delivery": 1
  },
  {
    "store_number": "003218",
    "name": "Taco Bell",
    "lat": 35.08143287141875,
    "lon": -106.61298062264471,
    "city": "Albuquerque",
    "state": "NM",
    "zip": "87106",
    "price_index": 1.01,
    "has_drive_thru": 1,
    "has_breakfast": 1,
    "has_late_night": 1,
    "has_delivery": 1
  },
  {
    "store_number": "003219",
    "name": "Taco Bell",
    "lat": 32.538806598026746,
    "lon": -94.34878869915337,
    "city": "Marshall",
    "state": "TX",
    "zip": "75670",
    "price_index": 0.91,
    "has_drive_thru": 1,
    "has_breakfast": 0,
    "has_late_night": 1,
    "has_delivery": 1
  },
  {
    "store_number": "003233",
    "name": "Taco Bell",
    "lat": 36.16034526521753,
    "lon": -95.88991103461012,
    "city": "Tulsa",
    "state": "OK",
    "zip": "74115",
    "price_index": 0.98,
    "has_drive_thru": 1,
    "has_breakfast": 0,
    "has_late_night": 1,
    "has_delivery": 1
  },
  {
    "store_number": "003237",
    "name": "Taco Bell",
    "lat": 33.466203107930525,
    "lon": -94.04367520885405,
    "city": "Texarkana",
    "state": "TX",
    "zip": "75503",
    "price_index": 0.98,
    "has_drive_thru": 1,
    "has_breakfast": 0,
    "has_late_night": 1,
    "has_delivery": 1
  },